{
"type": "FeatureCollection",
"crs": { "type": "name", "properties": { "name": "urn:ogc:def:crs:OGC:1.3:CRS84" } },
"features": [
{ "type": "Feature", "properties": { "name": "110 Cooperative 30 Cap", "address": "520 W 182nd St", "city": "Gardena", "slug": "110-co-op", "state": "CA", "type": "dispensary", "url": "https:\/\/weedmaps.com\/dispensaries\/110-co-op", "x": -118.282474, "y": 33.870022, "zipcode": 90248, "registered": false, "registered_name": null, "registered_address": null }, "geometry": { "type": "Point", "coordinates": [ -118.282474, 33.870022 ] } },
{ "type": "Feature", "properties": { "name": "110 Medical - 20 Cap", "address": "7111 South Broadway", "city": "Los Angeles", "slug": "broadway-medical-center-2-2", "state": "CA", "type": "dispensary", "url": "https:\/\/weedmaps.com\/dispensaries\/broadway-medical-center-2-2", "x": -118.278577, "y": 33.975231, "zipcode": 90003, "registered": false, "registered_name": null, "registered_address": null }, "geometry": { "type": "Point", "coordinates": [ -118.278577, 33.975231 ] } },
{ "type": "Feature", "properties": { "name": "24\/7 Recording", "address": "3783 East Olympic Blvd", "city": "Los Angeles", "slug": "24-7-recording", "state": "California", "type": "dispensary", "url": "https:\/\/weedmaps.com\/dispensaries\/24-7-recording", "x": -118.193928, "y": 34.01904, "zipcode": 90023, "registered": false, "registered_name": null, "registered_address": null }, "geometry": { "type": "Point", "coordinates": [ -118.193928, 34.01904 ] } },
{ "type": "Feature", "properties": { "name": "25 Cap HNH Holistic Natural Healing", "address": "735 Broad Ave", "city": "Wilmington", "slug": "holistic-natural-healing", "state": "CA", "type": "dispensary", "url": "https:\/\/weedmaps.com\/dispensaries\/holistic-natural-healing", "x": -118.261479, "y": 33.779593, "zipcode": 90744, "registered": false, "registered_name": null, "registered_address": null }, "geometry": { "type": "Point", "coordinates": [ -118.261479, 33.779593 ] } },
{ "type": "Feature", "properties": { "name": "25 King", "address": "1851 W FLORENCE AVE", "city": "LOS ANGELES", "slug": "fw-king", "state": "CA", "type": "dispensary", "url": "https:\/\/weedmaps.com\/dispensaries\/fw-king", "x": -118.310801, "y": 33.974778, "zipcode": 90047, "registered": false, "registered_name": null, "registered_address": null }, "geometry": { "type": "Point", "coordinates": [ -118.310801, 33.974778 ] } },
{ "type": "Feature", "properties": { "name": "25 Woodley", "address": "6853 Woodley Avenue", "city": "Van Nuys", "slug": "woodley-care-center", "state": "CA", "type": "dispensary", "url": "https:\/\/weedmaps.com\/dispensaries\/woodley-care-center", "x": -118.484254, "y": 34.195415, "zipcode": 91406, "registered": false, "registered_name": null, "registered_address": null }, "geometry": { "type": "Point", "coordinates": [ -118.484254, 34.195415 ] } },
{ "type": "Feature", "properties": { "name": "25CAP - Van Nuys Solutions", "address": "7301 Sepulveda Blvd", "city": "Van Nuys", "slug": "organica", "state": "Ca", "type": "dispensary", "url": "https:\/\/weedmaps.com\/dispensaries\/organica", "x": -118.466631, "y": 34.203437, "zipcode": 91405, "registered": true, "registered_name": "ORGANICA INC", "registered_address": "7301 SEPULVEDA 91405-1782" }, "geometry": { "type": "Point", "coordinates": [ -118.466631, 34.203437 ] } },
{ "type": "Feature", "properties": { "name": "420 Frat House 30 CAP", "address": "202 E Martin Luther King Jr Blvd.", "city": "Los Angeles", "slug": "central-la-collective", "state": "CA", "type": "dispensary", "url": "https:\/\/weedmaps.com\/dispensaries\/central-la-collective", "x": -118.271425, "y": 34.010753, "zipcode": 90011, "registered": false, "registered_name": null, "registered_address": null }, "geometry": { "type": "Point", "coordinates": [ -118.271425, 34.010753 ] } },
{ "type": "Feature", "properties": { "name": "420 Mart", "address": "8405 San Pedro St", "city": "Los Angeles", "slug": "420-mart", "state": "CA", "type": "dispensary", "url": "https:\/\/weedmaps.com\/dispensaries\/420-mart", "x": -118.269641, "y": 33.962534, "zipcode": 90003, "registered": false, "registered_name": null, "registered_address": null }, "geometry": { "type": "Point", "coordinates": [ -118.269641, 33.962534 ] } },
{ "type": "Feature", "properties": { "name": "4sure20 - GRAND OPENING!", "address": "7401 Foothill Blvd", "city": "Tujunga", "slug": "4sure20", "state": "CA", "type": "dispensary", "url": "https:\/\/weedmaps.com\/dispensaries\/4sure20", "x": -118.293335, "y": 34.251685, "zipcode": 91042, "registered": false, "registered_name": null, "registered_address": null }, "geometry": { "type": "Point", "coordinates": [ -118.293335, 34.251685 ] } },
{ "type": "Feature", "properties": { "name": "5 Leaves", "address": "1037 E Pacific Coast Hwy", "city": "Wilmington", "slug": "5-leaves", "state": "CA", "type": "dispensary", "url": "https:\/\/weedmaps.com\/dispensaries\/5-leaves", "x": -118.249628, "y": 33.791101, "zipcode": 90744, "registered": false, "registered_name": null, "registered_address": null }, "geometry": { "type": "Point", "coordinates": [ -118.249628, 33.791101 ] } },
{ "type": "Feature", "properties": { "name": "525 Collective", "address": "7809 South Western Ave.", "city": "Los Angeles", "slug": "clear-choice-collective-2-2", "state": "CA", "type": "dispensary", "url": "https:\/\/weedmaps.com\/dispensaries\/clear-choice-collective-2-2", "x": -118.309266, "y": 33.968736, "zipcode": 90047, "registered": false, "registered_name": null, "registered_address": null }, "geometry": { "type": "Point", "coordinates": [ -118.309266, 33.968736 ] } },
{ "type": "Feature", "properties": { "name": "ADCC", "address": "2222 East Olympic Blvd.", "city": "Los Angeles", "slug": "arts-district-cannabis-center", "state": "CA", "type": "dispensary", "url": "https:\/\/weedmaps.com\/dispensaries\/arts-district-cannabis-center", "x": -118.232836, "y": 34.025585, "zipcode": 90021, "registered": true, "registered_name": "CALIFORNIA ORGANIC TREATMENT CENTER INC", "registered_address": "2222 OLYMPIC 90021-2506" }, "geometry": { "type": "Point", "coordinates": [ -118.232836, 34.025585 ] } },
{ "type": "Feature", "properties": { "name": "After Hours 20 Cap Collective", "address": "1226 San Pedro Street", "city": "Los Angeles", "slug": "cpt-flight-club", "state": "CA", "type": "dispensary", "url": "https:\/\/weedmaps.com\/dispensaries\/cpt-flight-club", "x": -118.253656, "y": 34.032966, "zipcode": 90015, "registered": false, "registered_name": null, "registered_address": null }, "geometry": { "type": "Point", "coordinates": [ -118.253656, 34.032966 ] } },
{ "type": "Feature", "properties": { "name": "Alhambra Collective 25 Cap", "address": "5417 Huntington Dr N", "city": "Los Angeles", "slug": "alhambra-collective-25-cap", "state": "CA", "type": "dispensary", "url": "https:\/\/weedmaps.com\/dispensaries\/alhambra-collective-25-cap", "x": -118.162434, "y": 34.092724, "zipcode": 90032, "registered": false, "registered_name": null, "registered_address": null }, "geometry": { "type": "Point", "coordinates": [ -118.162434, 34.092724 ] } },
{ "type": "Feature", "properties": { "name": "Alhambra Green Stop 25 CAP", "address": "5555 Alhambra Ave", "city": "Alhambra", "slug": "alhambra-green-stop", "state": "CA", "type": "dispensary", "url": "https:\/\/weedmaps.com\/dispensaries\/alhambra-green-stop", "x": -118.16354, "y": 34.079177, "zipcode": 90032, "registered": false, "registered_name": null, "registered_address": null }, "geometry": { "type": "Point", "coordinates": [ -118.16354, 34.079177 ] } },
{ "type": "Feature", "properties": { "name": "Angels Kush - Korea Town", "address": "2500 W. 8th Street", "city": "Los Angeles", "slug": "angels-kush", "state": null, "type": "dispensary", "url": "https:\/\/weedmaps.com\/dispensaries\/angels-kush", "x": -118.282585, "y": 34.056529, "zipcode": 90057, "registered": false, "registered_name": null, "registered_address": null }, "geometry": { "type": "Point", "coordinates": [ -118.282585, 34.056529 ] } },
{ "type": "Feature", "properties": { "name": "Apothecary", "address": "15374 Dickens St.", "city": "Sherman Oaks", "slug": "apothecary-sherman-oaks", "state": "CA", "type": "dispensary", "url": "https:\/\/weedmaps.com\/dispensaries\/apothecary-sherman-oaks", "x": -118.468735, "y": 34.153227, "zipcode": 91403, "registered": true, "registered_name": "NEW APOTHECARY INC", "registered_address": "15374 DICKENS 91403-3007" }, "geometry": { "type": "Point", "coordinates": [ -118.468735, 34.153227 ] } },
{ "type": "Feature", "properties": { "name": "ATRIUM", "address": "5441 Topanga Canyon Blvd", "city": "Woodland Hills", "slug": "atrium", "state": null, "type": "dispensary", "url": "https:\/\/weedmaps.com\/dispensaries\/atrium", "x": -118.606036, "y": 34.169815, "zipcode": 91367, "registered": true, "registered_name": "VALLEY COLLECTIVE CARE INC", "registered_address": "5441 TOPANGA CANYON 91367-6314" }, "geometry": { "type": "Point", "coordinates": [ -118.606036, 34.169815 ] } },
{ "type": "Feature", "properties": { "name": "Avalon Daily Deals - REAL 25 CAP", "address": "9408 S Avalon Blvd", "city": "Los Angeles", "slug": "avalon-daily-deals", "state": "California", "type": "dispensary", "url": "https:\/\/weedmaps.com\/dispensaries\/avalon-daily-deals", "x": -118.265, "y": 33.950767, "zipcode": 90003, "registered": false, "registered_name": null, "registered_address": null }, "geometry": { "type": "Point", "coordinates": [ -118.265, 33.950767 ] } },
{ "type": "Feature", "properties": { "name": "BARC - BEVERLY ALTERNATIVE RELIEF", "address": "432 S. San Vicente Blvd. Suite #100", "city": "Los Angeles", "slug": "barccollective", "state": "CA", "type": "dispensary", "url": "https:\/\/weedmaps.com\/dispensaries\/barccollective", "x": -118.375675, "y": 34.070764, "zipcode": 90048, "registered": true, "registered_name": "RELIEF CCR", "registered_address": "432 SAN VICENTE 90048-4185" }, "geometry": { "type": "Point", "coordinates": [ -118.375675, 34.070764 ] } },
{ "type": "Feature", "properties": { "name": "BEACH Center - South Bay", "address": "1115 West 190th St.", "city": "Gardena", "slug": "beach-center", "state": "CA", "type": "dispensary", "url": "https:\/\/weedmaps.com\/dispensaries\/beach-center", "x": -118.295374, "y": 33.858537, "zipcode": 90248, "registered": true, "registered_name": "BEACH ENLIGHTENMENT AND COMPASSIONATE HEALING CORPORATION", "registered_address": "1115 190TH 90248-4303" }, "geometry": { "type": "Point", "coordinates": [ -118.295374, 33.858537 ] } },
{ "type": "Feature", "properties": { "name": "Beach Club 310", "address": "310 Culver", "city": "Playa Del Rey", "slug": "beach-club", "state": "California", "type": "dispensary", "url": "https:\/\/weedmaps.com\/dispensaries\/beach-club", "x": -118.447241, "y": 33.95964, "zipcode": 90293, "registered": false, "registered_name": null, "registered_address": null }, "geometry": { "type": "Point", "coordinates": [ -118.447241, 33.95964 ] } },
{ "type": "Feature", "properties": { "name": "Beverly Club", "address": "4276 Beverly Blvd", "city": "Los Angeles", "slug": "beverly-club", "state": "CA", "type": "dispensary", "url": "https:\/\/weedmaps.com\/dispensaries\/beverly-club", "x": -118.302251, "y": 34.076133, "zipcode": 90004, "registered": false, "registered_name": null, "registered_address": null }, "geometry": { "type": "Point", "coordinates": [ -118.302251, 34.076133 ] } },
{ "type": "Feature", "properties": { "name": "Bloom Valley 25 Cap", "address": "21729 devonshire st.", "city": "Chatsworth", "slug": "bloom-valley", "state": "CA", "type": "dispensary", "url": "https:\/\/weedmaps.com\/dispensaries\/bloom-valley", "x": -118.602615, "y": 34.257534, "zipcode": 91311, "registered": false, "registered_name": null, "registered_address": null }, "geometry": { "type": "Point", "coordinates": [ -118.602615, 34.257534 ] } },
{ "type": "Feature", "properties": { "name": "BMAC", "address": "2418 N Broadway", "city": "Los Angeles", "slug": "bmac", "state": "CA", "type": "dispensary", "url": "https:\/\/weedmaps.com\/dispensaries\/bmac", "x": -118.216231, "y": 34.0733, "zipcode": 90031, "registered": false, "registered_name": null, "registered_address": null }, "geometry": { "type": "Point", "coordinates": [ -118.216231, 34.0733 ] } },
{ "type": "Feature", "properties": { "name": "Bodhi Sattva", "address": "440.5 N. La Cienega Blvd", "city": "West Hollywood", "slug": "buddhabar", "state": "CA", "type": "dispensary", "url": "https:\/\/weedmaps.com\/dispensaries\/buddhabar", "x": -118.3763794, "y": 34.0793075, "zipcode": 90048, "registered": false, "registered_name": null, "registered_address": null }, "geometry": { "type": "Point", "coordinates": [ -118.3763794, 34.0793075 ] } },
{ "type": "Feature", "properties": { "name": "BONAFIDE COLLECTIVE - Pre ICO", "address": "7570 San Fernando Rd.", "city": "Burbank", "slug": "bonafide-group-collective", "state": "CA", "type": "dispensary", "url": "https:\/\/weedmaps.com\/dispensaries\/bonafide-group-collective", "x": -118.35357, "y": 34.2094049, "zipcode": 91504, "registered": false, "registered_name": null, "registered_address": null }, "geometry": { "type": "Point", "coordinates": [ -118.35357, 34.2094049 ] } },
{ "type": "Feature", "properties": { "name": "Breaking Bud 20 Cap", "address": "750 east Jefferson Blvd.", "city": "Los Angeles", "slug": "breaking-bud-20-cap", "state": "CA", "type": "dispensary", "url": "https:\/\/weedmaps.com\/dispensaries\/breaking-bud-20-cap", "x": -118.263924, "y": 34.01453, "zipcode": 90011, "registered": false, "registered_name": null, "registered_address": null }, "geometry": { "type": "Point", "coordinates": [ -118.263924, 34.01453 ] } },
{ "type": "Feature", "properties": { "name": "Broadway LA Pharmacy - 30 CAP", "address": "9304 S. Broadway", "city": "Los Angeles", "slug": "santa-ana-outrageousness", "state": "CA", "type": "dispensary", "url": "https:\/\/weedmaps.com\/dispensaries\/santa-ana-outrageousness", "x": -118.277845, "y": 33.951708, "zipcode": 90003, "registered": false, "registered_name": null, "registered_address": null }, "geometry": { "type": "Point", "coordinates": [ -118.277845, 33.951708 ] } },
{ "type": "Feature", "properties": { "name": "Bud King - PRE-ICO\/Prop. D", "address": "18438 Saticoy Street", "city": "Reseda", "slug": "bud-king", "state": "CA", "type": "dispensary", "url": "https:\/\/weedmaps.com\/dispensaries\/bud-king", "x": -118.535189, "y": 34.20824, "zipcode": 91335, "registered": true, "registered_name": "GREEN PLANT THERAPY INC", "registered_address": "18438 SATICOY 91335-2910" }, "geometry": { "type": "Point", "coordinates": [ -118.535189, 34.20824 ] } },
{ "type": "Feature", "properties": { "name": "Buddha Company", "address": "837 South Los Angeles Street", "city": "Los Angeles", "slug": "mosaic", "state": "California", "type": "dispensary", "url": "https:\/\/weedmaps.com\/dispensaries\/mosaic", "x": -118.25342, "y": 34.04136, "zipcode": 90014, "registered": true, "registered_name": "PROGRESSIVE HORIZON INC", "registered_address": "837 LOS ANGELES 90014-3301" }, "geometry": { "type": "Point", "coordinates": [ -118.25342, 34.04136 ] } },
{ "type": "Feature", "properties": { "name": "Buddha Company", "address": "2038 Sacramento Street", "city": "Los Angeles", "slug": "buddha-company-2", "state": "CA", "type": "dispensary", "url": "https:\/\/weedmaps.com\/dispensaries\/buddha-company-2", "x": -118.230673, "y": 34.030303, "zipcode": 90021, "registered": true, "registered_name": "CARE CALIFORNIA CONSULTATION INC", "registered_address": "2038 SACRAMENTO 90021-1720" }, "geometry": { "type": "Point", "coordinates": [ -118.230673, 34.030303 ] } },
{ "type": "Feature", "properties": { "name": "Buds R Us 20 Cap", "address": "8927 South Western Ave", "city": "Los Angeles", "slug": "buds-r-us-20-cap", "state": "CA", "type": "dispensary", "url": "https:\/\/weedmaps.com\/dispensaries\/buds-r-us-20-cap", "x": -118.309197, "y": 33.955582, "zipcode": 90047, "registered": false, "registered_name": null, "registered_address": null }, "geometry": { "type": "Point", "coordinates": [ -118.309197, 33.955582 ] } },
{ "type": "Feature", "properties": { "name": "Burdank Blvd", "address": "10626 Burbank Blvd", "city": "North Hollywood", "slug": "burdank-blvd", "state": "CA", "type": "dispensary", "url": "https:\/\/weedmaps.com\/dispensaries\/burdank-blvd", "x": -118.362507, "y": 34.171899, "zipcode": 91601, "registered": false, "registered_name": null, "registered_address": null }, "geometry": { "type": "Point", "coordinates": [ -118.362507, 34.171899 ] } },
{ "type": "Feature", "properties": { "name": "CAC Venice", "address": "122 Lincoln Blvd Suite 204", "city": "Los Angeles", "slug": "cac-venice-3", "state": "CA", "type": "dispensary", "url": "https:\/\/weedmaps.com\/dispensaries\/cac-venice-3", "x": -118.469196, "y": 34.002255, "zipcode": 90291, "registered": true, "registered_name": "CAC VENICE LLC", "registered_address": "122 LINCOLN 90291-2859" }, "geometry": { "type": "Point", "coordinates": [ -118.469196, 34.002255 ] } },
{ "type": "Feature", "properties": { "name": "Cali Culture", "address": "1862 E 1st", "city": "Los Angeles", "slug": "cali-culture", "state": "CA", "type": "dispensary", "url": "https:\/\/weedmaps.com\/dispensaries\/cali-culture", "x": -118.217847, "y": 34.046554, "zipcode": 90033, "registered": false, "registered_name": null, "registered_address": null }, "geometry": { "type": "Point", "coordinates": [ -118.217847, 34.046554 ] } },
{ "type": "Feature", "properties": { "name": "California Cannabis Crenshaw", "address": "7415 Crenshaw", "city": "Los Angeles", "slug": "california-cannabis-crenshaw", "state": "CA", "type": "dispensary", "url": "https:\/\/weedmaps.com\/dispensaries\/california-cannabis-crenshaw", "x": -118.331099, "y": 33.972214, "zipcode": 90043, "registered": true, "registered_name": "THE HOLISTIC CAREGIVERS INC", "registered_address": "7415 CRENSHAW 90043-4931" }, "geometry": { "type": "Point", "coordinates": [ -118.331099, 33.972214 ] } },
{ "type": "Feature", "properties": { "name": "California Cannabis Melrose", "address": "654 N Manhattan Pl", "city": "Los Angeles", "slug": "california-cannabis-melrose", "state": "CA", "type": "dispensary", "url": "https:\/\/weedmaps.com\/dispensaries\/california-cannabis-melrose", "x": -118.309961, "y": 34.0832, "zipcode": 90004, "registered": true, "registered_name": "WESTERN CAREGIVERS", "registered_address": "654 MANHATTAN 90004-1711" }, "geometry": { "type": "Point", "coordinates": [ -118.309961, 34.0832 ] } },
{ "type": "Feature", "properties": { "name": "California Cannabis Soto", "address": "1601 S Soto St.", "city": "Los Angeles", "slug": "california-cannabis-soto", "state": null, "type": "dispensary", "url": "https:\/\/weedmaps.com\/dispensaries\/california-cannabis-soto", "x": -118.22059, "y": 34.020821, "zipcode": 90023, "registered": true, "registered_name": "MED X NOW", "registered_address": "1601 SOTO 90023-2621" }, "geometry": { "type": "Point", "coordinates": [ -118.22059, 34.020821 ] } },
{ "type": "Feature", "properties": { "name": "California State", "address": "16850 Sherman Way", "city": "Lake Balboa", "slug": "hemp-collective", "state": "CA", "type": "dispensary", "url": "https:\/\/weedmaps.com\/dispensaries\/hemp-collective", "x": -118.500653, "y": 34.200744, "zipcode": 91406, "registered": false, "registered_name": null, "registered_address": null }, "geometry": { "type": "Point", "coordinates": [ -118.500653, 34.200744 ] } },
{ "type": "Feature", "properties": { "name": "Ca√±a Farms", "address": "7011 Canoga Ave", "city": "Canoga Park", "slug": "west-valley-caregivers", "state": null, "type": "dispensary", "url": "https:\/\/weedmaps.com\/dispensaries\/west-valley-caregivers", "x": -118.597964, "y": 34.197807, "zipcode": 91303, "registered": true, "registered_name": "HUNTINGTON PATIENTS ASSOCIATION", "registered_address": "7011 CANOGA 91303-2034" }, "geometry": { "type": "Point", "coordinates": [ -118.597964, 34.197807 ] } },
{ "type": "Feature", "properties": { "name": "Cannabal City Collective - Los Angeles", "address": "547 Seaton Street", "city": "Los Angeles", "slug": "cannabal-city", "state": "CA", "type": "dispensary", "url": "https:\/\/weedmaps.com\/dispensaries\/cannabal-city", "x": -118.237489, "y": 34.04015, "zipcode": 90013, "registered": false, "registered_name": null, "registered_address": null }, "geometry": { "type": "Point", "coordinates": [ -118.237489, 34.04015 ] } },
{ "type": "Feature", "properties": { "name": "Cannabis Local", "address": "12800 Wentworth St", "city": "Arleta", "slug": "cannabislocal", "state": "CA", "type": "dispensary", "url": "https:\/\/weedmaps.com\/dispensaries\/cannabislocal", "x": -118.411643, "y": 34.236191, "zipcode": 91331, "registered": true, "registered_name": "ROBERTSON CAREGIVERS BEVERLYWOOD", "registered_address": "12800 WENTWORTH 91331-4331" }, "geometry": { "type": "Point", "coordinates": [ -118.411643, 34.236191 ] } },
{ "type": "Feature", "properties": { "name": "Cannary West", "address": "2435 Military Ave.", "city": "Los Angeles", "slug": "cannary-west", "state": "CA", "type": "dispensary", "url": "https:\/\/weedmaps.com\/dispensaries\/cannary-west", "x": -118.432724, "y": 34.03732, "zipcode": 90064, "registered": true, "registered_name": "SOUTHERN CALIFORNIA COLLECTIVE", "registered_address": "2435 MILITARY 90064-1920" }, "geometry": { "type": "Point", "coordinates": [ -118.432724, 34.03732 ] } },
{ "type": "Feature", "properties": { "name": "Cannasseurs Club", "address": "10125 Sepulveda Boulevard", "city": "Mission Hills", "slug": "cannasseurs-club", "state": "CA", "type": "dispensary", "url": "https:\/\/weedmaps.com\/dispensaries\/cannasseurs-club", "x": -118.467826, "y": 34.254479, "zipcode": 91345, "registered": true, "registered_name": "HARBOR CAREGIVERS INC", "registered_address": "10125 SEPULVEDA 91345-2613" }, "geometry": { "type": "Point", "coordinates": [ -118.467826, 34.254479 ] } },
{ "type": "Feature", "properties": { "name": "CannaSutra Pre-ICO", "address": "11101 Ventura Blvd", "city": "Studio City", "slug": "cannasutra-420", "state": "California", "type": "dispensary", "url": "https:\/\/weedmaps.com\/dispensaries\/cannasutra-420", "x": -118.3719835, "y": 34.1413928, "zipcode": 91604, "registered": true, "registered_name": "DEC MEDICAL INC", "registered_address": "11101 VENTURA 91604-3134" }, "geometry": { "type": "Point", "coordinates": [ -118.3719835, 34.1413928 ] } },
{ "type": "Feature", "properties": { "name": "Canto Diem", "address": "10612 Chiquita St.", "city": "North Hollywood", "slug": "canto-diem-2", "state": "California", "type": "dispensary", "url": "https:\/\/weedmaps.com\/dispensaries\/canto-diem-2", "x": -118.3624613, "y": 34.1439691, "zipcode": 91602, "registered": true, "registered_name": "CANTODIEM DISPENSING COLLECTIVE INC", "registered_address": "10612 CHIQUITA 91602-3215" }, "geometry": { "type": "Point", "coordinates": [ -118.3624613, 34.1439691 ] } },
{ "type": "Feature", "properties": { "name": "CC Central Caregivers Inc.", "address": "9223 South Central Ave", "city": "Los Angeles", "slug": "ccc-central-cannasseurs-collective", "state": "CA", "type": "dispensary", "url": "https:\/\/weedmaps.com\/dispensaries\/ccc-central-cannasseurs-collective", "x": -118.255944, "y": 33.952078, "zipcode": 90002, "registered": false, "registered_name": null, "registered_address": null }, "geometry": { "type": "Point", "coordinates": [ -118.255944, 33.952078 ] } },
{ "type": "Feature", "properties": { "name": "CCA California Caregivers Alliance", "address": "2815 W Sunset Blvd #201", "city": "Los Angeles", "slug": "california-caregivers-alliance", "state": "CA", "type": "dispensary", "url": "https:\/\/weedmaps.com\/dispensaries\/california-caregivers-alliance", "x": -118.272079, "y": 34.0822348, "zipcode": 90026, "registered": true, "registered_name": "BARR CORPORATION", "registered_address": "2815 SUNSET 90026-2169" }, "geometry": { "type": "Point", "coordinates": [ -118.272079, 34.0822348 ] } },
{ "type": "Feature", "properties": { "name": "CFC - SUGARBUDZ", "address": "9830 north San Fernando rd", "city": "Pacoima", "slug": "healthy-life-pharmacy-hlp", "state": "CA", "type": "dispensary", "url": "https:\/\/weedmaps.com\/dispensaries\/healthy-life-pharmacy-hlp", "x": -118.403018, "y": 34.249553, "zipcode": 91331, "registered": true, "registered_name": "WONDERLAND OASIS INC", "registered_address": "9830 SAN FERNANDO 91331-2636" }, "geometry": { "type": "Point", "coordinates": [ -118.403018, 34.249553 ] } },
{ "type": "Feature", "properties": { "name": "CHC Canna Health Caregivers", "address": "5658 W. Pico Blvd", "city": "Los Angeles, Midtown", "slug": "cannahealthcaregivers", "state": "CA", "type": "dispensary", "url": "https:\/\/weedmaps.com\/dispensaries\/cannahealthcaregivers", "x": -118.362149, "y": 34.050333, "zipcode": 90019, "registered": false, "registered_name": null, "registered_address": null }, "geometry": { "type": "Point", "coordinates": [ -118.362149, 34.050333 ] } },
{ "type": "Feature", "properties": { "name": "Church of Higher Healing", "address": "907 West Anaheim Street", "city": "Wilmington", "slug": "churcch-of-higher-healing", "state": "CA", "type": "dispensary", "url": "https:\/\/weedmaps.com\/dispensaries\/churcch-of-higher-healing", "x": -118.273242, "y": 33.779535, "zipcode": 90744, "registered": false, "registered_name": null, "registered_address": null }, "geometry": { "type": "Point", "coordinates": [ -118.273242, 33.779535 ] } },
{ "type": "Feature", "properties": { "name": "Circle Of Hope", "address": "16901 Roscoe Blvd", "city": "Northridge", "slug": "circle-of-hope", "state": "Ca", "type": "dispensary", "url": "https:\/\/weedmaps.com\/dispensaries\/circle-of-hope", "x": -118.501258, "y": 34.221652, "zipcode": 91343, "registered": true, "registered_name": "CIRCLE OF HOPE ALLIANCE", "registered_address": "16901 ROSCOE 91343-6112" }, "geometry": { "type": "Point", "coordinates": [ -118.501258, 34.221652 ] } },
{ "type": "Feature", "properties": { "name": "City Compassionate Caregivers CCC", "address": "2235 E 7th Street", "city": "Los Angeles", "slug": "citycompassionatecaregivers", "state": "CA", "type": "dispensary", "url": "https:\/\/weedmaps.com\/dispensaries\/citycompassionatecaregivers", "x": -118.22343, "y": 34.034855, "zipcode": 90023, "registered": true, "registered_name": "CITY COMPASSIONATE CAREGIVERS", "registered_address": "2235 7TH 90023-1019" }, "geometry": { "type": "Point", "coordinates": [ -118.22343, 34.034855 ] } },
{ "type": "Feature", "properties": { "name": "Cloneville (CCSC)", "address": "11422 Moorpark St", "city": "Studio City", "slug": "cloneville-ccsc", "state": "CA", "type": "dispensary", "url": "https:\/\/weedmaps.com\/dispensaries\/cloneville-ccsc", "x": -118.379918, "y": 34.15008, "zipcode": 91604, "registered": true, "registered_name": "COMPASSSIONATE CAREGIVER OF STUDIO CITY", "registered_address": "11422 MOORPARK 91602-2010" }, "geometry": { "type": "Point", "coordinates": [ -118.379918, 34.15008 ] } },
{ "type": "Feature", "properties": { "name": "Cloud 8th DTLA", "address": "2111 Long Beach Ave", "city": "Los Angeles", "slug": "canna-health-caregiver", "state": "CA", "type": "dispensary", "url": "https:\/\/weedmaps.com\/dispensaries\/canna-health-caregiver", "x": -118.243825, "y": 34.017649, "zipcode": 90058, "registered": true, "registered_name": "CANNA HEALTHCARE INC", "registered_address": "2111 LONG BEACH 90058-1023" }, "geometry": { "type": "Point", "coordinates": [ -118.243825, 34.017649 ] } },
{ "type": "Feature", "properties": { "name": "Club 101", "address": "21146 Ventura Blvd Unit 5", "city": "Woodland Hills", "slug": "ventura-collective", "state": "CA", "type": "dispensary", "url": "https:\/\/weedmaps.com\/dispensaries\/ventura-collective", "x": -118.59433, "y": 34.167019, "zipcode": 91364, "registered": false, "registered_name": null, "registered_address": null }, "geometry": { "type": "Point", "coordinates": [ -118.59433, 34.167019 ] } },
{ "type": "Feature", "properties": { "name": "COAST TO COAST COLLECTIVE", "address": "7127 Canoga Avenue", "city": "Canoga Park", "slug": "coast-to-coast-collective", "state": "CA", "type": "dispensary", "url": "https:\/\/weedmaps.com\/dispensaries\/coast-to-coast-collective", "x": -118.5981, "y": 34.199973, "zipcode": 91303, "registered": true, "registered_name": "CALIFORNIA'S FINEST COAST TO COAST INC", "registered_address": "7127 CANOGA 91303-2035" }, "geometry": { "type": "Point", "coordinates": [ -118.5981, 34.199973 ] } },
{ "type": "Feature", "properties": { "name": "Compassion Union", "address": "11669 Vanowen St", "city": "North Hollywood", "slug": "compassion-union-2-6", "state": "CA", "type": "dispensary", "url": "https:\/\/weedmaps.com\/dispensaries\/compassion-union-2-6", "x": -118.386923, "y": 34.193945, "zipcode": 91605, "registered": true, "registered_name": "COMPASSION UNION INC", "registered_address": "11669 VANOWEN 91605-6131" }, "geometry": { "type": "Point", "coordinates": [ -118.386923, 34.193945 ] } },
{ "type": "Feature", "properties": { "name": "Cookies Melrose", "address": "8360 Melrose Ave", "city": "Los Angeles", "slug": "cookies-melrose-hollywood", "state": "CA", "type": "dispensary", "url": "https:\/\/weedmaps.com\/dispensaries\/cookies-melrose-hollywood", "x": -118.372365, "y": 34.083554, "zipcode": 90069, "registered": true, "registered_name": "PURPLE HEART COMPASSION INC", "registered_address": "8360 MELROSE 90069-6501" }, "geometry": { "type": "Point", "coordinates": [ -118.372365, 34.083554 ] } },
{ "type": "Feature", "properties": { "name": "Cornerstone Research Collective", "address": "2551 Colorado Blvd", "city": "Los Angeles", "slug": "cornerstone-research-collective", "state": "CA", "type": "dispensary", "url": "https:\/\/weedmaps.com\/dispensaries\/cornerstone-research-collective", "x": -118.22198, "y": 34.142091, "zipcode": 90041, "registered": true, "registered_name": "CORNERSTONE RESEARCH COLLECTIVE", "registered_address": "2551 COLORADO 90041-1040" }, "geometry": { "type": "Point", "coordinates": [ -118.22198, 34.142091 ] } },
{ "type": "Feature", "properties": { "name": "CPR", "address": "18526 Parthenia Street", "city": "Northridge", "slug": "compassionate-patient-resources", "state": "CA", "type": "dispensary", "url": "https:\/\/weedmaps.com\/dispensaries\/compassionate-patient-resources", "x": -118.53711, "y": 34.228094, "zipcode": 91324, "registered": true, "registered_name": "COMPASSIONATE PATIENT RESOURCES, INC.", "registered_address": "18526 PARTHENIA 91324-4025" }, "geometry": { "type": "Point", "coordinates": [ -118.53711, 34.228094 ] } },
{ "type": "Feature", "properties": { "name": "Crenshaw Caregivers", "address": "3520 West Slauson Avenue", "city": "Los Angeles", "slug": "crenshaw-caregivers-2", "state": "CA", "type": "dispensary", "url": "https:\/\/weedmaps.com\/dispensaries\/crenshaw-caregivers-2", "x": -118.333845, "y": 33.988792, "zipcode": 90043, "registered": false, "registered_name": null, "registered_address": null }, "geometry": { "type": "Point", "coordinates": [ -118.333845, 33.988792 ] } },
{ "type": "Feature", "properties": { "name": "Crenshaw Church of Herbs", "address": "5879 Crenshaw Blvd", "city": "Los Angeles", "slug": "crenshaw-church-of-herbs", "state": "CA", "type": "dispensary", "url": "https:\/\/weedmaps.com\/dispensaries\/crenshaw-church-of-herbs", "x": -118.331197, "y": 33.98737, "zipcode": 90043, "registered": false, "registered_name": null, "registered_address": null }, "geometry": { "type": "Point", "coordinates": [ -118.331197, 33.98737 ] } },
{ "type": "Feature", "properties": { "name": "Crenshaw Daily Deals - REAL 25 CAP", "address": "4306 Crenshaw Blvd Suite 107", "city": "Los Angeles", "slug": "tlpc-collective-grand-opening", "state": "CA", "type": "dispensary", "url": "https:\/\/weedmaps.com\/dispensaries\/tlpc-collective-grand-opening", "x": -118.333294, "y": 34.005215, "zipcode": 90008, "registered": false, "registered_name": null, "registered_address": null }, "geometry": { "type": "Point", "coordinates": [ -118.333294, 34.005215 ] } },
{ "type": "Feature", "properties": { "name": "Daddy's Dispensary", "address": "7040 Hayvenhurst Ave", "city": "Van Nuys", "slug": "daddy-s-dispensary", "state": "CA", "type": "dispensary", "url": "https:\/\/weedmaps.com\/dispensaries\/daddy-s-dispensary", "x": -118.491917, "y": 34.198594, "zipcode": 91406, "registered": true, "registered_name": "DADDY'S PIPES INC", "registered_address": "7040 HAYVENHURST 91406-3801" }, "geometry": { "type": "Point", "coordinates": [ -118.491917, 34.198594 ] } },
{ "type": "Feature", "properties": { "name": "Dank of California", "address": "5530 Corbin Avenue", "city": "Tarzana", "slug": "dank-of-california", "state": "CA", "type": "dispensary", "url": "https:\/\/weedmaps.com\/dispensaries\/dank-of-california", "x": -118.561866, "y": 34.171792, "zipcode": 91356, "registered": false, "registered_name": null, "registered_address": null }, "geometry": { "type": "Point", "coordinates": [ -118.561866, 34.171792 ] } },
{ "type": "Feature", "properties": { "name": "Dankilicious 15 Cap", "address": "5021 San Vicente Blvd. Unit A", "city": "Los Angeles", "slug": "dabilicious-15-cap", "state": "California", "type": "dispensary", "url": "https:\/\/weedmaps.com\/dispensaries\/dabilicious-15-cap", "x": -118.345418, "y": 34.050911, "zipcode": 90019, "registered": false, "registered_name": null, "registered_address": null }, "geometry": { "type": "Point", "coordinates": [ -118.345418, 34.050911 ] } },
{ "type": "Feature", "properties": { "name": "DC Collective", "address": "8053 Deering Ave.", "city": "Canoga Park", "slug": "dc-collective", "state": "CA", "type": "dispensary", "url": "https:\/\/weedmaps.com\/dispensaries\/dc-collective", "x": -118.595255, "y": 34.216779, "zipcode": 91304, "registered": true, "registered_name": "DISCOUNT CAREGIVERS", "registered_address": "8053 DEERING 91304-5011" }, "geometry": { "type": "Point", "coordinates": [ -118.595255, 34.216779 ] } },
{ "type": "Feature", "properties": { "name": "Delta 9 THC 21+", "address": "824 E. Anaheim St. Unit B", "city": "Wilmington", "slug": "delta-9-thc", "state": "CA", "type": "dispensary", "url": "https:\/\/weedmaps.com\/dispensaries\/delta-9-thc", "x": -118.252246, "y": 33.780288, "zipcode": 90744, "registered": true, "registered_name": "DELTA-9 T.H.C.", "registered_address": "824 ANAHEIM 90744-6833" }, "geometry": { "type": "Point", "coordinates": [ -118.252246, 33.780288 ] } },
{ "type": "Feature", "properties": { "name": "Disabled Veterans Collective", "address": "5248 Alhambra Ave. Unit B", "city": "Los Angeles", "slug": "better-daze", "state": "CA", "type": "dispensary", "url": "https:\/\/weedmaps.com\/dispensaries\/better-daze", "x": -118.170927, "y": 34.074523, "zipcode": 90032, "registered": false, "registered_name": null, "registered_address": null }, "geometry": { "type": "Point", "coordinates": [ -118.170927, 34.074523 ] } },
{ "type": "Feature", "properties": { "name": "Divine Wellness Center", "address": "7246 Eton Ave", "city": "Canoga Park", "slug": "divinewc", "state": "CA", "type": "dispensary", "url": "https:\/\/weedmaps.com\/dispensaries\/divinewc", "x": -118.595155, "y": 34.202437, "zipcode": 91303, "registered": true, "registered_name": "DIVINE WELLNESS CENTER INC", "registered_address": "7246 ETON 91303-1505" }, "geometry": { "type": "Point", "coordinates": [ -118.595155, 34.202437 ] } },
{ "type": "Feature", "properties": { "name": "Dope Girls LA", "address": "6214 Santa Monica Blvd", "city": "Hollywood", "slug": "dope-girls-la", "state": "CA", "type": "dispensary", "url": "https:\/\/weedmaps.com\/dispensaries\/dope-girls-la", "x": -118.324896, "y": 34.09063, "zipcode": 90038, "registered": false, "registered_name": null, "registered_address": null }, "geometry": { "type": "Point", "coordinates": [ -118.324896, 34.09063 ] } },
{ "type": "Feature", "properties": { "name": "Downtown Care", "address": "610 New High Street", "city": "Los Angeles", "slug": "downtown-care-ftp-5-gram-8ths", "state": "CA", "type": "dispensary", "url": "https:\/\/weedmaps.com\/dispensaries\/downtown-care-ftp-5-gram-8ths", "x": -118.239293, "y": 34.058508, "zipcode": 90012, "registered": false, "registered_name": null, "registered_address": null }, "geometry": { "type": "Point", "coordinates": [ -118.239293, 34.058508 ] } },
{ "type": "Feature", "properties": { "name": "Downtown Fantastic 20 Cap", "address": "1135 Venice Blvd", "city": "Los Angeles", "slug": "downtown-fantastic-20-cap", "state": "California", "type": "dispensary", "url": "https:\/\/weedmaps.com\/dispensaries\/downtown-fantastic-20-cap", "x": -118.280001, "y": 34.042105, "zipcode": 90015, "registered": false, "registered_name": null, "registered_address": null }, "geometry": { "type": "Point", "coordinates": [ -118.280001, 34.042105 ] } },
{ "type": "Feature", "properties": { "name": "Dr. Greenthumb's - Sylmar", "address": "12751 Foothill Blvd.", "city": "Sylmar", "slug": "dr-greenthumbs-sylmar", "state": "CA", "type": "dispensary", "url": "https:\/\/weedmaps.com\/dispensaries\/dr-greenthumbs-sylmar", "x": -118.412557, "y": 34.291486, "zipcode": 91342, "registered": true, "registered_name": "SOUTHWEST CAREGIVERS INC", "registered_address": "12751 FOOTHILL 91342-5314" }, "geometry": { "type": "Point", "coordinates": [ -118.412557, 34.291486 ] } },
{ "type": "Feature", "properties": { "name": "Dr. GT LA", "address": "847 W Florence Ave", "city": "Los Angeles", "slug": "dr-greenthumb-la", "state": "CA", "type": "dispensary", "url": "https:\/\/weedmaps.com\/dispensaries\/dr-greenthumb-la", "x": -118.288895, "y": 33.974853, "zipcode": 90044, "registered": false, "registered_name": null, "registered_address": null }, "geometry": { "type": "Point", "coordinates": [ -118.288895, 33.974853 ] } },
{ "type": "Feature", "properties": { "name": "DTPG", "address": "930 South Alameda Street", "city": "Los Angeles", "slug": "downtown-patients-group-dtpg", "state": "CA", "type": "dispensary", "url": "https:\/\/weedmaps.com\/dispensaries\/downtown-patients-group-dtpg", "x": -118.238727, "y": 34.026479, "zipcode": 90021, "registered": false, "registered_name": null, "registered_address": null }, "geometry": { "type": "Point", "coordinates": [ -118.238727, 34.026479 ] } },
{ "type": "Feature", "properties": { "name": "East LA Collective 25 CAP", "address": "4874 S Huntington Dr", "city": "East Los Angeles", "slug": "east-la-collective-2", "state": "CA", "type": "dispensary", "url": "https:\/\/weedmaps.com\/dispensaries\/east-la-collective-2", "x": -118.17746, "y": 34.086089, "zipcode": 90032, "registered": false, "registered_name": null, "registered_address": null }, "geometry": { "type": "Point", "coordinates": [ -118.17746, 34.086089 ] } },
{ "type": "Feature", "properties": { "name": "ELEVATE", "address": "13509 Hubbard Street", "city": "Sylmar", "slug": "sylmar-holistic-center", "state": "CA", "type": "dispensary", "url": "https:\/\/weedmaps.com\/dispensaries\/sylmar-holistic-center", "x": -118.427823, "y": 34.3099158, "zipcode": 91342, "registered": true, "registered_name": "420 GRAND INC", "registered_address": "13509 HUBBARD 91342-4419" }, "geometry": { "type": "Point", "coordinates": [ -118.427823, 34.3099158 ] } },
{ "type": "Feature", "properties": { "name": "Elevate Harbor City - Coming Soon!", "address": "1227 West 253rd St", "city": "Harbor City", "slug": "elevate-harbor-city", "state": "California", "type": "dispensary", "url": "https:\/\/weedmaps.com\/dispensaries\/elevate-harbor-city", "x": -118.298215, "y": 33.79501, "zipcode": 90710, "registered": true, "registered_name": "GREEN EARTH PHARMACY INC", "registered_address": "1227 253RD 90710-2413" }, "geometry": { "type": "Point", "coordinates": [ -118.298215, 33.79501 ] } },
{ "type": "Feature", "properties": { "name": "ERB Supply", "address": "1236 Compton Ave", "city": "Los Angeles", "slug": "erb-supply", "state": "California", "type": "dispensary", "url": "https:\/\/weedmaps.com\/dispensaries\/erb-supply", "x": -118.241746, "y": 34.026621, "zipcode": 90021, "registered": false, "registered_name": null, "registered_address": null }, "geometry": { "type": "Point", "coordinates": [ -118.241746, 34.026621 ] } },
{ "type": "Feature", "properties": { "name": "ERBA Markets", "address": "12320 W Pico Blvd", "city": "Los Angeles", "slug": "erba", "state": "CA", "type": "dispensary", "url": "https:\/\/weedmaps.com\/dispensaries\/erba", "x": -118.452265, "y": 34.028134, "zipcode": 90064, "registered": true, "registered_name": "LOS ANGELES WELLNESS CENTER LLC", "registered_address": "12320 PICO 90064-1137" }, "geometry": { "type": "Point", "coordinates": [ -118.452265, 34.028134 ] } },
{ "type": "Feature", "properties": { "name": "Euphoric", "address": "10655 West Pico Blvd", "city": "Los Angeles", "slug": "euphoric-40-cap", "state": "CA", "type": "dispensary", "url": "https:\/\/weedmaps.com\/dispensaries\/euphoric-40-cap", "x": -118.4237806, "y": 34.0427874, "zipcode": 90064, "registered": true, "registered_name": "ONESRA ENTERPRISES INC", "registered_address": "10655 PICO 90064-2222" }, "geometry": { "type": "Point", "coordinates": [ -118.423780599999986, 34.0427874 ] } },
{ "type": "Feature", "properties": { "name": "EVOLV Cannabis", "address": "25937 S Western Ave", "city": "Lomita", "slug": "evolv-cannabis", "state": "CA", "type": "dispensary", "url": "https:\/\/weedmaps.com\/dispensaries\/evolv-cannabis", "x": -118.308087, "y": 33.787102, "zipcode": 90717, "registered": true, "registered_name": "HERBAL SOLUTIONS SOUTHERN CALIFORNIA", "registered_address": "25937 WESTERN 90717-3361" }, "geometry": { "type": "Point", "coordinates": [ -118.308087, 33.787102 ] } },
{ "type": "Feature", "properties": { "name": "EXCLUSIVE 25 CAP PRE-ICO", "address": "6200 S Wilton Place", "city": "Los Angeles", "slug": "exclusive-caregivers-of-california-2-2", "state": "Ca", "type": "dispensary", "url": "https:\/\/weedmaps.com\/dispensaries\/exclusive-caregivers-of-california-2-2", "x": -118.314571, "y": 33.983001, "zipcode": 90047, "registered": true, "registered_name": "EXCLUSIVE CAREGIVERS OF CALIFORNIA INC", "registered_address": "6200 WILTON 90047-1319" }, "geometry": { "type": "Point", "coordinates": [ -118.314571, 33.983001 ] } },
{ "type": "Feature", "properties": { "name": "Exclusive Care and Wellness", "address": "25915 Senator Avenue", "city": "Harbor City", "slug": "exclusive-care-and-wellness", "state": "CA", "type": "dispensary", "url": "https:\/\/weedmaps.com\/dispensaries\/exclusive-care-and-wellness", "x": -118.302862, "y": 33.787915, "zipcode": 90710, "registered": false, "registered_name": null, "registered_address": null }, "geometry": { "type": "Point", "coordinates": [ -118.302862, 33.787915 ] } },
{ "type": "Feature", "properties": { "name": "EXHALE MED CENTER", "address": "980 North La Cienega #102", "city": "Los Angeles", "slug": "exhale-med-center", "state": null, "type": "dispensary", "url": "https:\/\/weedmaps.com\/dispensaries\/exhale-med-center", "x": -118.376318, "y": 34.088813, "zipcode": 90069, "registered": true, "registered_name": "CHRONICPRACTOR CAREGIVER INC", "registered_address": "980 LA CIENEGA 90069-4781" }, "geometry": { "type": "Point", "coordinates": [ -118.376318, 34.088813 ] } },
{ "type": "Feature", "properties": { "name": "Exhalence", "address": "10467 Roscoe Blvd", "city": "Sun Valley", "slug": "exhalence", "state": "CA", "type": "dispensary", "url": "https:\/\/weedmaps.com\/dispensaries\/exhalence", "x": -118.359563, "y": 34.221922, "zipcode": 91352, "registered": true, "registered_name": "BOO-KU C.C. INC", "registered_address": "10467 ROSCOE 91352-4101" }, "geometry": { "type": "Point", "coordinates": [ -118.359563, 34.221922 ] } },
{ "type": "Feature", "properties": { "name": "FAMOUS ROOTS 25 CAP", "address": "12708 Foothill Blvd", "city": "Sylmar", "slug": "famous-roots", "state": "CA", "type": "dispensary", "url": "https:\/\/weedmaps.com\/dispensaries\/famous-roots", "x": -118.412123, "y": 34.290092, "zipcode": 91342, "registered": false, "registered_name": null, "registered_address": null }, "geometry": { "type": "Point", "coordinates": [ -118.412123, 34.290092 ] } },
{ "type": "Feature", "properties": { "name": "FCC - Florence Canna Clinic", "address": "357 East Florence Ave", "city": "Los Angeles", "slug": "skyline", "state": "CA", "type": "dispensary", "url": "https:\/\/weedmaps.com\/dispensaries\/skyline", "x": -118.267547, "y": 33.974975, "zipcode": 90003, "registered": false, "registered_name": null, "registered_address": null }, "geometry": { "type": "Point", "coordinates": [ -118.267547, 33.974975 ] } },
{ "type": "Feature", "properties": { "name": "Field Of Dreams", "address": "1787 Westwood", "city": "Los Angeles", "slug": "field-of-dreams", "state": "Ca", "type": "dispensary", "url": "https:\/\/weedmaps.com\/dispensaries\/field-of-dreams", "x": -118.437645, "y": 34.050216, "zipcode": 90024, "registered": true, "registered_name": "SYLMAR CAREGIVERS INC", "registered_address": "1787 WESTWOOD 90024-5607" }, "geometry": { "type": "Point", "coordinates": [ -118.437645, 34.050216 ] } },
{ "type": "Feature", "properties": { "name": "Fire Factory 15 Cap", "address": "3525 Emery St.", "city": "Los Angeles", "slug": "fire-factory-15-cap", "state": "California", "type": "dispensary", "url": "https:\/\/weedmaps.com\/dispensaries\/fire-factory-15-cap", "x": -118.202084, "y": 34.014402, "zipcode": 90023, "registered": false, "registered_name": null, "registered_address": null }, "geometry": { "type": "Point", "coordinates": [ -118.202084, 34.014402 ] } },
{ "type": "Feature", "properties": { "name": "FireHaus", "address": "2000 Cotner Ave", "city": "Los Angeles", "slug": "firehaus", "state": "CA", "type": "dispensary", "url": "https:\/\/weedmaps.com\/dispensaries\/firehaus", "x": -118.4417437, "y": 34.0421216, "zipcode": 90025, "registered": true, "registered_name": "GREEN LEAF CAREGIVERS", "registered_address": "2000 COTNER 90025-5604" }, "geometry": { "type": "Point", "coordinates": [ -118.441743699999989, 34.0421216 ] } },
{ "type": "Feature", "properties": { "name": "Flower Shop DTLA", "address": "726 e 8th street", "city": "Los angeles", "slug": "flower-shop-dtla", "state": "California", "type": "dispensary", "url": "https:\/\/weedmaps.com\/dispensaries\/flower-shop-dtla", "x": -118.248623, "y": 34.037609, "zipcode": 90021, "registered": false, "registered_name": null, "registered_address": null }, "geometry": { "type": "Point", "coordinates": [ -118.248623, 34.037609 ] } },
{ "type": "Feature", "properties": { "name": "FOOTHILL WELLNESS CENTER - Pre ICO", "address": "7132 Foothill Blvd.", "city": "Tujunga", "slug": "foothill-wellness-center-2", "state": null, "type": "dispensary", "url": "https:\/\/weedmaps.com\/dispensaries\/foothill-wellness-center-2", "x": -118.287349, "y": 34.247969, "zipcode": 91042, "registered": true, "registered_name": "PATIENTS CORP", "registered_address": "7132 FOOTHILL 91042-2717" }, "geometry": { "type": "Point", "coordinates": [ -118.287349, 34.247969 ] } },
{ "type": "Feature", "properties": { "name": "Fountain of Wellbeing - FWB", "address": "7231 Hinds Ave", "city": "North Hollywood", "slug": "fountain-of-wellbeing", "state": "CA", "type": "dispensary", "url": "https:\/\/weedmaps.com\/dispensaries\/fountain-of-wellbeing", "x": -118.39138, "y": 34.202133, "zipcode": 91605, "registered": true, "registered_name": "FOUNTAIN OF WELLBEING A COOPERATIVE CORPORATION", "registered_address": "7231 HINDS 91605-3702" }, "geometry": { "type": "Point", "coordinates": [ -118.39138, 34.202133 ] } },
{ "type": "Feature", "properties": { "name": "FourTwentyLA", "address": "1420 S Los Angeles Street Unit B", "city": "Los Angeles", "slug": "fourtwentyla", "state": "CA", "type": "dispensary", "url": "https:\/\/weedmaps.com\/dispensaries\/fourtwentyla", "x": -118.260365, "y": 34.034387, "zipcode": 90015, "registered": false, "registered_name": null, "registered_address": null }, "geometry": { "type": "Point", "coordinates": [ -118.260365, 34.034387 ] } },
{ "type": "Feature", "properties": { "name": "Gardena Gardens", "address": "16220 South Vermont Ave", "city": "Gardena", "slug": "gardena-gardens", "state": "CA", "type": "dispensary", "url": "https:\/\/weedmaps.com\/dispensaries\/gardena-gardens", "x": -118.290989, "y": 33.883652, "zipcode": 90247, "registered": false, "registered_name": null, "registered_address": null }, "geometry": { "type": "Point", "coordinates": [ -118.290989, 33.883652 ] } },
{ "type": "Feature", "properties": { "name": "Giving Back Collective", "address": "3205 W. Florence Ave", "city": "Los Angeles", "slug": "giving-back-collectives", "state": "CA", "type": "dispensary", "url": "https:\/\/weedmaps.com\/dispensaries\/giving-back-collectives", "x": -118.328213, "y": 33.974711, "zipcode": 90043, "registered": false, "registered_name": null, "registered_address": null }, "geometry": { "type": "Point", "coordinates": [ -118.328213, 33.974711 ] } },
{ "type": "Feature", "properties": { "name": "GOLD 20 Cap Collective", "address": "4207 S Broadway", "city": "Los Angeles", "slug": "green-heaven-collective-2", "state": "CA", "type": "dispensary", "url": "https:\/\/weedmaps.com\/dispensaries\/green-heaven-collective-2", "x": -118.278372, "y": 34.007076, "zipcode": 90037, "registered": false, "registered_name": null, "registered_address": null }, "geometry": { "type": "Point", "coordinates": [ -118.278372, 34.007076 ] } },
{ "type": "Feature", "properties": { "name": "Grace Medical", "address": "2340 S Centinela Ave", "city": "Los Angeles", "slug": "grace-medical", "state": "CA", "type": "dispensary", "url": "https:\/\/weedmaps.com\/dispensaries\/grace-medical", "x": -118.453677, "y": 34.028556, "zipcode": 90064, "registered": false, "registered_name": null, "registered_address": null }, "geometry": { "type": "Point", "coordinates": [ -118.453677, 34.028556 ] } },
{ "type": "Feature", "properties": { "name": "Granada Gardens 20 Cap", "address": "17815 Chatsworth St. Suite A", "city": "Granada Hills", "slug": "granada-gardens-20-cap", "state": "CA", "type": "dispensary", "url": "https:\/\/weedmaps.com\/dispensaries\/granada-gardens-20-cap", "x": -118.522024, "y": 34.265109, "zipcode": 91344, "registered": false, "registered_name": null, "registered_address": null }, "geometry": { "type": "Point", "coordinates": [ -118.522024, 34.265109 ] } },
{ "type": "Feature", "properties": { "name": "Green Angel (Pre-ICO)", "address": "14000 Ventura Blvd", "city": "Sherman Oaks", "slug": "mmrc", "state": "CA", "type": "dispensary", "url": "https:\/\/weedmaps.com\/dispensaries\/mmrc", "x": -118.437371, "y": 34.148845, "zipcode": 91423, "registered": true, "registered_name": "MMR CENTER INC", "registered_address": "14000 VENTURA 91423-3512" }, "geometry": { "type": "Point", "coordinates": [ -118.437371, 34.148845 ] } },
{ "type": "Feature", "properties": { "name": "Green Angel Pre-Ico", "address": "22748 Ventura Blvd", "city": "Woodland Hills", "slug": "green-angel", "state": "CA", "type": "dispensary", "url": "https:\/\/weedmaps.com\/dispensaries\/green-angel", "x": -118.621991, "y": 34.166073, "zipcode": 91364, "registered": true, "registered_name": "ALTERNATIVE MEDICINAL CAREGIVERS INC", "registered_address": "22748 VENTURA 91364-1333" }, "geometry": { "type": "Point", "coordinates": [ -118.621991, 34.166073 ] } },
{ "type": "Feature", "properties": { "name": "Green Awning Collective - GAC", "address": "22708 Ventura Boulevard", "city": "Woodland Hills", "slug": "one-bud-collective-obc", "state": "CA", "type": "dispensary", "url": "https:\/\/weedmaps.com\/dispensaries\/one-bud-collective-obc", "x": -118.620961, "y": 34.166493, "zipcode": 91364, "registered": false, "registered_name": null, "registered_address": null }, "geometry": { "type": "Point", "coordinates": [ -118.620961, 34.166493 ] } },
{ "type": "Feature", "properties": { "name": "Green Castle 25 Cap", "address": "9118 South Broadway", "city": "Los Angeles", "slug": "the-greenhouse-2-4", "state": "CA", "type": "dispensary", "url": "https:\/\/weedmaps.com\/dispensaries\/the-greenhouse-2-4", "x": -118.277926, "y": 33.953219, "zipcode": 90003, "registered": false, "registered_name": null, "registered_address": null }, "geometry": { "type": "Point", "coordinates": [ -118.277926, 33.953219 ] } },
{ "type": "Feature", "properties": { "name": "Green City Collective", "address": "8405 Pershing dr. suite 100", "city": "Playa Del Ray", "slug": "green-city-collective-la", "state": "CA", "type": "dispensary", "url": "https:\/\/weedmaps.com\/dispensaries\/green-city-collective-la", "x": -118.443269, "y": 33.957087, "zipcode": 90293, "registered": true, "registered_name": "NILE COOPERATIVE CORPORATION", "registered_address": "8405 PERSHING 90293-7870" }, "geometry": { "type": "Point", "coordinates": [ -118.443269, 33.957087 ] } },
{ "type": "Feature", "properties": { "name": "Green Cross of Torrance", "address": "1658 West Carson St. Suite B", "city": "Torrance", "slug": "green-cross-of-torrance", "state": "CA", "type": "dispensary", "url": "https:\/\/weedmaps.com\/dispensaries\/green-cross-of-torrance", "x": -118.3086093, "y": 33.831098, "zipcode": 90501, "registered": true, "registered_name": "CORNERSTONE RESEARCH COLLECTIVE", "registered_address": "2551 COLORADO 90041-1040" }, "geometry": { "type": "Point", "coordinates": [ -118.308609299999986, 33.831098 ] } },
{ "type": "Feature", "properties": { "name": "Green Diamond Caregivers", "address": "8514 S Broadway", "city": "Los Angeles", "slug": "green-diamond-caregivers-2", "state": "CA", "type": "dispensary", "url": "https:\/\/weedmaps.com\/dispensaries\/green-diamond-caregivers-2", "x": -118.278141, "y": 33.961095, "zipcode": 90003, "registered": false, "registered_name": null, "registered_address": null }, "geometry": { "type": "Point", "coordinates": [ -118.278141, 33.961095 ] } },
{ "type": "Feature", "properties": { "name": "Green Door", "address": "5522 Cahuenga Blvd", "city": "North Hollywood", "slug": "5222-collective", "state": "CA", "type": "dispensary", "url": "https:\/\/weedmaps.com\/dispensaries\/5222-collective", "x": -118.361314, "y": 34.17072, "zipcode": 91601, "registered": false, "registered_name": null, "registered_address": null }, "geometry": { "type": "Point", "coordinates": [ -118.361314, 34.17072 ] } },
{ "type": "Feature", "properties": { "name": "Green Dot Medicinal Cannabis Patient's Group", "address": "4200 Lincoln Blvd", "city": "Marina Del Rey", "slug": "californiahealinggardens", "state": "CA", "type": "dispensary", "url": "https:\/\/weedmaps.com\/dispensaries\/californiahealinggardens", "x": -118.444227, "y": 33.986927, "zipcode": 90292, "registered": true, "registered_name": "GREEN DOT MEDICINAL CANNABIS PATIENT'S GROUP", "registered_address": "4200 LINCOLN 90292-5618" }, "geometry": { "type": "Point", "coordinates": [ -118.444227, 33.986927 ] } },
{ "type": "Feature", "properties": { "name": "GREEN DRAGON", "address": "7236 Varna Ave", "city": "North Hollywood", "slug": "green-dragon-caregivers-inc", "state": "CA", "type": "dispensary", "url": "https:\/\/weedmaps.com\/dispensaries\/green-dragon-caregivers-inc", "x": -118.42468, "y": 34.202202, "zipcode": 91605, "registered": true, "registered_name": "GREEN DRAGON CAREGIVERS INC", "registered_address": "7236 VARNA 91605-4102" }, "geometry": { "type": "Point", "coordinates": [ -118.42468, 34.202202 ] } },
{ "type": "Feature", "properties": { "name": "Green Earth Collective", "address": "4801 York Blvd", "city": "Los Angeles", "slug": "green-earth-collective", "state": "CA", "type": "dispensary", "url": "https:\/\/weedmaps.com\/dispensaries\/green-earth-collective", "x": -118.210695, "y": 34.122485, "zipcode": 90042, "registered": true, "registered_name": "GREEN EARTH VITALITY CORPORATION", "registered_address": "4801 YORK 90042-1636" }, "geometry": { "type": "Point", "coordinates": [ -118.210695, 34.122485 ] } },
{ "type": "Feature", "properties": { "name": "Green Earth Farmacie", "address": "7756 Burnet Ave.", "city": "Van Nuys", "slug": "van-nuys-91405", "state": "CA", "type": "dispensary", "url": "https:\/\/weedmaps.com\/dispensaries\/van-nuys-91405", "x": -118.462523, "y": 34.212052, "zipcode": 91405, "registered": true, "registered_name": "THE COMPASSION NETWORK LLC", "registered_address": "410 LINCOLN 90291-2829" }, "geometry": { "type": "Point", "coordinates": [ -118.462523, 34.212052 ] } },
{ "type": "Feature", "properties": { "name": "Green Garden Collective", "address": "11414 S Vermont Ave.", "city": "Los Angeles", "slug": "green-garden-collective-3", "state": "CA", "type": "dispensary", "url": "https:\/\/weedmaps.com\/dispensaries\/green-garden-collective-3", "x": -118.291258, "y": 33.930478, "zipcode": 90044, "registered": false, "registered_name": null, "registered_address": null }, "geometry": { "type": "Point", "coordinates": [ -118.291258, 33.930478 ] } },
{ "type": "Feature", "properties": { "name": "Green Ghost", "address": "753 East Jefferson Blvd", "city": "Los Angeles", "slug": "green-ghost-2", "state": "CA", "type": "dispensary", "url": "https:\/\/weedmaps.com\/dispensaries\/green-ghost-2", "x": -118.263499, "y": 34.014802, "zipcode": 90011, "registered": false, "registered_name": null, "registered_address": null }, "geometry": { "type": "Point", "coordinates": [ -118.263499, 34.014802 ] } },
{ "type": "Feature", "properties": { "name": "Green Ghost 2", "address": "7402 S Western Ave", "city": "Los Angeles", "slug": "gas-kingz", "state": "CA", "type": "dispensary", "url": "https:\/\/weedmaps.com\/dispensaries\/gas-kingz", "x": -118.308973, "y": 33.972579, "zipcode": 90047, "registered": false, "registered_name": null, "registered_address": null }, "geometry": { "type": "Point", "coordinates": [ -118.308973, 33.972579 ] } },
{ "type": "Feature", "properties": { "name": "f2", "address": "1716 MAIN ST.", "city": "Venice", "slug": "greengoddess", "state": "CA", "type": "dispensary", "url": "https:\/\/weedmaps.com\/dispensaries\/greengoddess", "x": -118.47047, "y": 33.987753, "zipcode": 90291, "registered": true, "registered_name": "GREEN GODDESS INC.", "registered_address": "1716 MAIN 90291-6612" }, "geometry": { "type": "Point", "coordinates": [ -118.47047, 33.987753 ] } },
{ "type": "Feature", "properties": { "name": "Green State University 20 Cap", "address": "2604 South Hill St", "city": "Los Angeles", "slug": "superior-herbal-health-25-cap", "state": "CA", "type": "dispensary", "url": "https:\/\/weedmaps.com\/dispensaries\/superior-herbal-health-25-cap", "x": -118.270856, "y": 34.025523, "zipcode": 90007, "registered": false, "registered_name": null, "registered_address": null }, "geometry": { "type": "Point", "coordinates": [ -118.270856, 34.025523 ] } },
{ "type": "Feature", "properties": { "name": "Green Zone Collective", "address": "7040 Owensmouth Ave", "city": "Canoga Park", "slug": "green-zone-collective", "state": "CA", "type": "dispensary", "url": "https:\/\/weedmaps.com\/dispensaries\/green-zone-collective", "x": -118.601416, "y": 34.198693, "zipcode": 91303, "registered": false, "registered_name": null, "registered_address": null }, "geometry": { "type": "Point", "coordinates": [ -118.601416, 34.198693 ] } },
{ "type": "Feature", "properties": { "name": "Greenbear 20 Cap Collective", "address": "1412 S Alameda St", "city": "Los Angeles", "slug": "ogb-2", "state": "CA", "type": "dispensary", "url": "https:\/\/weedmaps.com\/dispensaries\/ogb-2", "x": -118.23904, "y": 34.025136, "zipcode": 90021, "registered": false, "registered_name": null, "registered_address": null }, "geometry": { "type": "Point", "coordinates": [ -118.23904, 34.025136 ] } },
{ "type": "Feature", "properties": { "name": "GreenBuds Collective", "address": "8110 S Broadway", "city": "Los Angeles", "slug": "greenbuds-collective", "state": "Ca", "type": "dispensary", "url": "https:\/\/weedmaps.com\/dispensaries\/greenbuds-collective", "x": -118.277716, "y": 33.965565, "zipcode": 90003, "registered": false, "registered_name": null, "registered_address": null }, "geometry": { "type": "Point", "coordinates": [ -118.277716, 33.965565 ] } },
{ "type": "Feature", "properties": { "name": "Greenhouse Herbal Center, LLC", "address": "5224 Hollywood Blvd.", "city": "Hollywood", "slug": "greenhouse-herbal-center", "state": "CA", "type": "dispensary", "url": "https:\/\/weedmaps.com\/dispensaries\/greenhouse-herbal-center", "x": -118.3041071, "y": 34.1016334, "zipcode": 90027, "registered": true, "registered_name": "GREENHOUSE HERBAL CENTER LLC", "registered_address": "5224 HOLLYWOOD 90027-4909" }, "geometry": { "type": "Point", "coordinates": [ -118.3041071, 34.1016334 ] } },
{ "type": "Feature", "properties": { "name": "Greenlight Discount Pharmacy Pre-ICO", "address": "15507 Cobalt Street #4", "city": "Sylmar", "slug": "greenlight-discount-pharmacy", "state": "CA", "type": "dispensary", "url": "https:\/\/weedmaps.com\/dispensaries\/greenlight-discount-pharmacy", "x": -118.470101, "y": 34.307005, "zipcode": 91342, "registered": true, "registered_name": "ZEN MEDICAL GARDEN CO OP INC", "registered_address": "15507 COBALT 91342-3563" }, "geometry": { "type": "Point", "coordinates": [ -118.470101, 34.307005 ] } },
{ "type": "Feature", "properties": { "name": "Greens Good", "address": "8762 Pico Blvd", "city": "Los Angeles", "slug": "greens-good", "state": "Ca", "type": "dispensary", "url": "https:\/\/weedmaps.com\/dispensaries\/greens-good", "x": -118.383178, "y": 34.054705, "zipcode": 90035, "registered": false, "registered_name": null, "registered_address": null }, "geometry": { "type": "Point", "coordinates": [ -118.383178, 34.054705 ] } },
{ "type": "Feature", "properties": { "name": "GREENWOLF LA Pre ICO", "address": "2950 Los Feliz Blvd. Unit #100", "city": "Los Angeles", "slug": "greenwolf-la", "state": "California", "type": "dispensary", "url": "https:\/\/weedmaps.com\/dispensaries\/greenwolf-la", "x": -118.263905, "y": 34.125669, "zipcode": 90039, "registered": true, "registered_name": "HOLISTIC HEALING ALTERNATIVE INC", "registered_address": "2950 LOS FELIZ 90039-1532" }, "geometry": { "type": "Point", "coordinates": [ -118.263905, 34.125669 ] } },
{ "type": "Feature", "properties": { "name": "GSG - Gold State Greens", "address": "5632 Lankershim Blvd", "city": "North Hollywood", "slug": "gsg-gold-state-greens", "state": "CA", "type": "dispensary", "url": "https:\/\/weedmaps.com\/dispensaries\/gsg-gold-state-greens", "x": -118.37961, "y": 34.173795, "zipcode": 91601, "registered": false, "registered_name": null, "registered_address": null }, "geometry": { "type": "Point", "coordinates": [ -118.37961, 34.173795 ] } },
{ "type": "Feature", "properties": { "name": "GTR NOHO", "address": "5024 VINELAND AVE", "city": "NORTH HOLLYWOOD", "slug": "gtr-noho", "state": "CA", "type": "dispensary", "url": "https:\/\/weedmaps.com\/dispensaries\/gtr-noho", "x": -118.370005, "y": 34.161932, "zipcode": 91601, "registered": false, "registered_name": null, "registered_address": null }, "geometry": { "type": "Point", "coordinates": [ -118.370005, 34.161932 ] } },
{ "type": "Feature", "properties": { "name": "GW Inc", "address": "7561 Lankershim Blvd Unit 104", "city": "North Hollywood", "slug": "grassware-inc", "state": "CA", "type": "dispensary", "url": "https:\/\/weedmaps.com\/dispensaries\/grassware-inc", "x": -118.388284, "y": 34.208088, "zipcode": 91605, "registered": false, "registered_name": null, "registered_address": null }, "geometry": { "type": "Point", "coordinates": [ -118.388284, 34.208088 ] } },
{ "type": "Feature", "properties": { "name": "H.A.I", "address": "18306 Eddy St.", "city": "Northridge", "slug": "holistic-alternative-inc-57-d-2", "state": "CA", "type": "dispensary", "url": "https:\/\/weedmaps.com\/dispensaries\/holistic-alternative-inc-57-d-2", "x": -118.531973, "y": 34.227216, "zipcode": 91325, "registered": true, "registered_name": "HOLISTIC ALTERNATIVE INC. #57\/D", "registered_address": "18306 EDDY 91325-3314" }, "geometry": { "type": "Point", "coordinates": [ -118.531973, 34.227216 ] } },
{ "type": "Feature", "properties": { "name": "HACC - Torrance", "address": "1613 West Carson Street #104", "city": "Torrance", "slug": "haccnc", "state": "CA", "type": "dispensary", "url": "https:\/\/weedmaps.com\/dispensaries\/haccnc", "x": -118.306984, "y": 33.831736, "zipcode": 90501, "registered": false, "registered_name": null, "registered_address": null }, "geometry": { "type": "Point", "coordinates": [ -118.306984, 33.831736 ] } },
{ "type": "Feature", "properties": { "name": "Happy Leaf Collective", "address": "2131 Westwood Blvd", "city": "Los Angeles", "slug": "happy-leaf-la", "state": "CA", "type": "dispensary", "url": "https:\/\/weedmaps.com\/dispensaries\/happy-leaf-la", "x": -118.432401, "y": 34.044288, "zipcode": 90025, "registered": true, "registered_name": "TRINITY MEDICAL ALLIANCE INC", "registered_address": "2131 WESTWOOD 90025-6330" }, "geometry": { "type": "Point", "coordinates": [ -118.432401, 34.044288 ] } },
{ "type": "Feature", "properties": { "name": "HAPPY LIFE", "address": "25916 S Western Ave", "city": "Lomita", "slug": "happy-life-la", "state": "CA", "type": "dispensary", "url": "https:\/\/weedmaps.com\/dispensaries\/happy-life-la", "x": -118.307338, "y": 33.787723, "zipcode": 90710, "registered": false, "registered_name": null, "registered_address": null }, "geometry": { "type": "Point", "coordinates": [ -118.307338, 33.787723 ] } },
{ "type": "Feature", "properties": { "name": "Harbor High Meds", "address": "1318 N. Wilmington Blvd.", "city": "Wilmington", "slug": "harbor-high-meds", "state": "CA", "type": "dispensary", "url": "https:\/\/weedmaps.com\/dispensaries\/harbor-high-meds", "x": -118.274796, "y": 33.789165, "zipcode": 90744, "registered": false, "registered_name": null, "registered_address": null }, "geometry": { "type": "Point", "coordinates": [ -118.274796, 33.789165 ] } },
{ "type": "Feature", "properties": { "name": "Harvest of Venice (Coming Soon)", "address": "712 Lincoln Blvd", "city": "Venice", "slug": "harvest-venice", "state": "CA", "type": "dispensary", "url": "https:\/\/weedmaps.com\/dispensaries\/harvest-venice", "x": -118.463986, "y": 33.999778, "zipcode": 90291, "registered": false, "registered_name": null, "registered_address": null }, "geometry": { "type": "Point", "coordinates": [ -118.463986, 33.999778 ] } },
{ "type": "Feature", "properties": { "name": "Hazel PRE-ICO - CLOSED DURING REMODELING", "address": "17523 Ventura Blvd.", "city": "Encino", "slug": "hazel", "state": "CA", "type": "dispensary", "url": "https:\/\/weedmaps.com\/dispensaries\/hazel", "x": -118.514986, "y": 34.162006, "zipcode": 91316, "registered": true, "registered_name": "HAZELWOOD PATIENTS COLLECTIVE", "registered_address": "17523 VENTURA 91316-3836" }, "geometry": { "type": "Point", "coordinates": [ -118.514986, 34.162006 ] } },
{ "type": "Feature", "properties": { "name": "HCMA - NC Co-Op, Inc.", "address": "11826 Sheldon Street", "city": "Sun Valley", "slug": "northridge-caregivers-co-op-inc", "state": "CA", "type": "dispensary", "url": "https:\/\/weedmaps.com\/dispensaries\/northridge-caregivers-co-op-inc", "x": -118.390294, "y": 34.241126, "zipcode": 91352, "registered": true, "registered_name": "NORTHRIDGE CAREGIVERS CO-OP INC", "registered_address": "11826 SHELDON 91352-1507" }, "geometry": { "type": "Point", "coordinates": [ -118.390294, 34.241126 ] } },
{ "type": "Feature", "properties": { "name": "Herbal Pain Relief Center", "address": "10736 Sepulveda Blvd.", "city": "Mission Hills", "slug": "missionhillsorganic", "state": "CA", "type": "dispensary", "url": "https:\/\/weedmaps.com\/dispensaries\/missionhillsorganic", "x": -118.4670804, "y": 34.2652813, "zipcode": 91345, "registered": true, "registered_name": "HERBAL PAIN RELIEF CENTER COOPERATIVE INC", "registered_address": "10736 SEPULVEDA 91345-1904" }, "geometry": { "type": "Point", "coordinates": [ -118.4670804, 34.2652813 ] } },
{ "type": "Feature", "properties": { "name": "Herbal Remedies Caregivers", "address": "12423 Gladstone Avenue", "city": "Sylmar", "slug": "herbal-remedies-caregivers-2", "state": "CA", "type": "dispensary", "url": "https:\/\/weedmaps.com\/dispensaries\/herbal-remedies-caregivers-2", "x": -118.412265, "y": 34.295557, "zipcode": 91342, "registered": true, "registered_name": "HERBAL REMEDIES CAREGIVERS INC", "registered_address": null }, "geometry": { "type": "Point", "coordinates": [ -118.412265, 34.295557 ] } },
{ "type": "Feature", "properties": { "name": "HHC - Healthy Herbal Care", "address": "7123 Sepulveda Blvd.", "city": "Van Nuys", "slug": "hhc-heavenly-herbal-collective", "state": "California", "type": "dispensary", "url": "https:\/\/weedmaps.com\/dispensaries\/hhc-heavenly-herbal-collective", "x": -118.466586, "y": 34.200152, "zipcode": 91405, "registered": true, "registered_name": "HEALTHY HERBAL CARE INC", "registered_address": "7123 SEPULVEDA 91405-2930" }, "geometry": { "type": "Point", "coordinates": [ -118.466586, 34.200152 ] } },
{ "type": "Feature", "properties": { "name": "HHC Plus", "address": "1901 S. Alameda St. #112", "city": "Los Angeles", "slug": "hhc-plus", "state": "CA", "type": "dispensary", "url": "https:\/\/weedmaps.com\/dispensaries\/hhc-plus", "x": -118.239628, "y": 34.020211, "zipcode": 90058, "registered": true, "registered_name": "HHC PLUS INC A CA NON-PROF CORP", "registered_address": "1901 ALAMEDA 90058-1037" }, "geometry": { "type": "Point", "coordinates": [ -118.239628, 34.020211 ] } },
{ "type": "Feature", "properties": { "name": "High City Collective", "address": "4507 West Pico Blvd", "city": "Los Angles", "slug": "pico-collective", "state": "CA", "type": "dispensary", "url": "https:\/\/weedmaps.com\/dispensaries\/pico-collective", "x": -118.333968, "y": 34.048697, "zipcode": 90019, "registered": false, "registered_name": null, "registered_address": null }, "geometry": { "type": "Point", "coordinates": [ -118.333968, 34.048697 ] } },
{ "type": "Feature", "properties": { "name": "High Society Wellness Center", "address": "2000 Marengo Street Unit G", "city": "Los Angeles", "slug": "high-society-wellness-center", "state": "CA", "type": "dispensary", "url": "https:\/\/weedmaps.com\/dispensaries\/high-society-wellness-center", "x": -118.208297, "y": 34.056549, "zipcode": 90033, "registered": false, "registered_name": null, "registered_address": null }, "geometry": { "type": "Point", "coordinates": [ -118.208297, 34.056549 ] } },
{ "type": "Feature", "properties": { "name": "HOLLYWEED DISPENSARY", "address": "5158 Venice Blvd", "city": "Los Angeles", "slug": "hollyweed", "state": "CA", "type": "dispensary", "url": "https:\/\/weedmaps.com\/dispensaries\/hollyweed", "x": -118.352704, "y": 34.044844, "zipcode": 90019, "registered": false, "registered_name": null, "registered_address": null }, "geometry": { "type": "Point", "coordinates": [ -118.352704, 34.044844 ] } },
{ "type": "Feature", "properties": { "name": "Hollywood High Grade", "address": "7051 B Santa Monica Blvd", "city": "Hollywood", "slug": "hollywood-high-grade-hollywood-los-angeles", "state": "ca", "type": "dispensary", "url": "https:\/\/weedmaps.com\/dispensaries\/hollywood-high-grade-hollywood-los-angeles", "x": -118.343381, "y": 34.090861, "zipcode": 90038, "registered": true, "registered_name": "ASHMOON INC", "registered_address": "7051 SANTA MONICA 90038-1042" }, "geometry": { "type": "Point", "coordinates": [ -118.343381, 34.090861 ] } },
{ "type": "Feature", "properties": { "name": "Hollywood Holistic", "address": "5419 W. Sunset Blvd", "city": "Hollywood", "slug": "hollywood-holistic-3", "state": null, "type": "dispensary", "url": "https:\/\/weedmaps.com\/dispensaries\/hollywood-holistic-3", "x": -118.307933, "y": 34.09857, "zipcode": 90027, "registered": false, "registered_name": null, "registered_address": null }, "geometry": { "type": "Point", "coordinates": [ -118.307933, 34.09857 ] } },
{ "type": "Feature", "properties": { "name": "Hollywood House of Herbs 20 Cap", "address": "5011 lankershim blvd", "city": "north hollywood", "slug": "hollywood-house-of-bogo-collective", "state": "California", "type": "dispensary", "url": "https:\/\/weedmaps.com\/dispensaries\/hollywood-house-of-bogo-collective", "x": -118.372832, "y": 34.161159, "zipcode": 91601, "registered": false, "registered_name": null, "registered_address": null }, "geometry": { "type": "Point", "coordinates": [ -118.372832, 34.161159 ] } },
{ "type": "Feature", "properties": { "name": "HOOVER GREENS", "address": "6127 S Hoover St", "city": "Los Angeles", "slug": "hoover-greens", "state": null, "type": "dispensary", "url": "https:\/\/weedmaps.com\/dispensaries\/hoover-greens", "x": -118.287196, "y": 33.983884, "zipcode": 90044, "registered": false, "registered_name": null, "registered_address": null }, "geometry": { "type": "Point", "coordinates": [ -118.287196, 33.983884 ] } },
{ "type": "Feature", "properties": { "name": "Hoover Street Caregivers", "address": "6801 South Hoover Street", "city": "Los Angeles", "slug": "hsc-la", "state": "CA", "type": "dispensary", "url": "https:\/\/weedmaps.com\/dispensaries\/hsc-la", "x": -118.287225, "y": 33.9781, "zipcode": 90044, "registered": false, "registered_name": null, "registered_address": null }, "geometry": { "type": "Point", "coordinates": [ -118.287225, 33.9781 ] } },
{ "type": "Feature", "properties": { "name": "House of Kush", "address": "653 West Florence", "city": "Los Angeles", "slug": "house-of-kush-4", "state": "CA", "type": "dispensary", "url": "https:\/\/weedmaps.com\/dispensaries\/house-of-kush-4", "x": -118.28527, "y": 33.974834, "zipcode": 90044, "registered": false, "registered_name": null, "registered_address": null }, "geometry": { "type": "Point", "coordinates": [ -118.28527, 33.974834 ] } },
{ "type": "Feature", "properties": { "name": "House of Savage", "address": "5608 Willow Crest Avenue", "city": "North Hollywood", "slug": "the-house-of-savage-2", "state": "CA", "type": "dispensary", "url": "https:\/\/weedmaps.com\/dispensaries\/the-house-of-savage-2", "x": -118.362628, "y": 34.172195, "zipcode": 91601, "registered": false, "registered_name": null, "registered_address": null }, "geometry": { "type": "Point", "coordinates": [ -118.362628, 34.172195 ] } },
{ "type": "Feature", "properties": { "name": "Infinite Wellness 20 Cap", "address": "5017 S. Broadway", "city": "Los Angeles", "slug": "infinite-wellness-1", "state": "CA", "type": "dispensary", "url": "https:\/\/weedmaps.com\/dispensaries\/infinite-wellness-1", "x": -118.278516, "y": 33.996866, "zipcode": 90037, "registered": false, "registered_name": null, "registered_address": null }, "geometry": { "type": "Point", "coordinates": [ -118.278516, 33.996866 ] } },
{ "type": "Feature", "properties": { "name": "INFINITY MEDICAL ALLIANCE - Torrance", "address": "1609 Lockness Place", "city": "Torrance", "slug": "infinity-medical-alliance", "state": "CA", "type": "dispensary", "url": "https:\/\/weedmaps.com\/dispensaries\/infinity-medical-alliance", "x": -118.305964, "y": 33.818082, "zipcode": 90501, "registered": true, "registered_name": "INFINITY MEDICAL ALLIANCE", "registered_address": "1609 LOCKNESS PL W, 90501" }, "geometry": { "type": "Point", "coordinates": [ -118.305964, 33.818082 ] } },
{ "type": "Feature", "properties": { "name": "Jayne's World", "address": "2622 S. Robertson Blvd", "city": "Los Angeles", "slug": "jayne-s-world", "state": "CA", "type": "dispensary", "url": "https:\/\/weedmaps.com\/dispensaries\/jayne-s-world", "x": -118.388331, "y": 34.037683, "zipcode": 90034, "registered": false, "registered_name": null, "registered_address": null }, "geometry": { "type": "Point", "coordinates": [ -118.388331, 34.037683 ] } },
{ "type": "Feature", "properties": { "name": "K-Town Vermont", "address": "737 S. Vermont Ave", "city": "Los Angeles", "slug": "k-town-vermont", "state": "CA", "type": "dispensary", "url": "https:\/\/weedmaps.com\/dispensaries\/k-town-vermont", "x": -118.291675, "y": 34.058561, "zipcode": 90005, "registered": false, "registered_name": null, "registered_address": null }, "geometry": { "type": "Point", "coordinates": [ -118.291675, 34.058561 ] } },
{ "type": "Feature", "properties": { "name": "Killer Meds 30CAP", "address": "1677 Pacific Coast Hwy", "city": "Lomita", "slug": "killer-meds-2", "state": "CA", "type": "dispensary", "url": "https:\/\/weedmaps.com\/dispensaries\/killer-meds-2", "x": -118.306936, "y": 33.789778, "zipcode": 90710, "registered": false, "registered_name": null, "registered_address": null }, "geometry": { "type": "Point", "coordinates": [ -118.306936, 33.789778 ] } },
{ "type": "Feature", "properties": { "name": "King Kush Collective of LOS ANGELES", "address": "8950 S. Western Ave", "city": "Los Angeles", "slug": "broadway-medical-collectivve", "state": "CA", "type": "dispensary", "url": "https:\/\/weedmaps.com\/dispensaries\/broadway-medical-collectivve", "x": -118.30879, "y": 33.954821, "zipcode": 90047, "registered": false, "registered_name": null, "registered_address": null }, "geometry": { "type": "Point", "coordinates": [ -118.30879, 33.954821 ] } },
{ "type": "Feature", "properties": { "name": "KoreaTown Collective \/ Ktown Collective on Melrose", "address": "7382 Melrose Ave", "city": "Los Angeles", "slug": "koreatown-collective-sc-labs-full-menu-testing", "state": "CA", "type": "dispensary", "url": "https:\/\/weedmaps.com\/dispensaries\/koreatown-collective-sc-labs-full-menu-testing", "x": -118.350991, "y": 34.083421, "zipcode": 90046, "registered": true, "registered_name": "KOREA TOWN COLLECTIVE LLC", "registered_address": "7382 MELROSE 90046-7527" }, "geometry": { "type": "Point", "coordinates": [ -118.350991, 34.083421 ] } },
{ "type": "Feature", "properties": { "name": "Kush 25", "address": "650 N. Broad Ave", "city": "Wilmington", "slug": "kush-25", "state": "CA", "type": "dispensary", "url": "https:\/\/weedmaps.com\/dispensaries\/kush-25", "x": -118.260574, "y": 33.778519, "zipcode": 90744, "registered": false, "registered_name": null, "registered_address": null }, "geometry": { "type": "Point", "coordinates": [ -118.260574, 33.778519 ] } },
{ "type": "Feature", "properties": { "name": "Kush Kings", "address": "9800 S San Pedro St", "city": "Los Angeles", "slug": "lit-korner", "state": "CA", "type": "dispensary", "url": "https:\/\/weedmaps.com\/dispensaries\/lit-korner", "x": -118.26939, "y": 33.947145, "zipcode": 90003, "registered": false, "registered_name": null, "registered_address": null }, "geometry": { "type": "Point", "coordinates": [ -118.26939, 33.947145 ] } },
{ "type": "Feature", "properties": { "name": "Kush Kings Caregivers", "address": "2309 W Pico", "city": "Los Angeles", "slug": "kush-factory", "state": "CA", "type": "dispensary", "url": "https:\/\/weedmaps.com\/dispensaries\/kush-factory", "x": -118.287013, "y": 34.047511, "zipcode": 90006, "registered": false, "registered_name": null, "registered_address": null }, "geometry": { "type": "Point", "coordinates": [ -118.287013, 34.047511 ] } },
{ "type": "Feature", "properties": { "name": "Kush Mart 20 Cap Collective", "address": "420 E 11th Street", "city": "Los Angeles", "slug": "kush-mart-20-cap-collective", "state": "CA", "type": "dispensary", "url": "https:\/\/weedmaps.com\/dispensaries\/kush-mart-20-cap-collective", "x": -118.254535, "y": 34.036598, "zipcode": 90015, "registered": false, "registered_name": null, "registered_address": null }, "geometry": { "type": "Point", "coordinates": [ -118.254535, 34.036598 ] } },
{ "type": "Feature", "properties": { "name": "Kush Palace", "address": "1716 S Sepulveda Blvd", "city": "Los Angeles", "slug": "kush-palace", "state": "California", "type": "dispensary", "url": "https:\/\/weedmaps.com\/dispensaries\/kush-palace", "x": -118.44327, "y": 34.047007, "zipcode": 90025, "registered": false, "registered_name": null, "registered_address": null }, "geometry": { "type": "Point", "coordinates": [ -118.44327, 34.047007 ] } },
{ "type": "Feature", "properties": { "name": "Kush Town", "address": "3305 W. 8th", "city": "Koreatown", "slug": "kush-town", "state": "California", "type": "dispensary", "url": "https:\/\/weedmaps.com\/dispensaries\/kush-town", "x": -118.300143, "y": 34.057883, "zipcode": 90005, "registered": false, "registered_name": null, "registered_address": null }, "geometry": { "type": "Point", "coordinates": [ -118.300143, 34.057883 ] } },
{ "type": "Feature", "properties": { "name": "Kushism Van Nuys", "address": "7555 Woodley Avenue", "city": "Van Nuys", "slug": "kushism", "state": "CA", "type": "dispensary", "url": "https:\/\/weedmaps.com\/dispensaries\/kushism", "x": -118.483965, "y": 34.208235, "zipcode": 91406, "registered": true, "registered_name": "KUSHISM INC", "registered_address": "7555 WOODLEY 91406-2930" }, "geometry": { "type": "Point", "coordinates": [ -118.483965, 34.208235 ] } },
{ "type": "Feature", "properties": { "name": "KUSHLAND", "address": "8459 S Broadway", "city": "South Los Angeles", "slug": "kush-land", "state": "CA", "type": "dispensary", "url": "https:\/\/weedmaps.com\/dispensaries\/kush-land", "x": -118.27863, "y": 33.961571, "zipcode": 90003, "registered": false, "registered_name": null, "registered_address": null }, "geometry": { "type": "Point", "coordinates": [ -118.27863, 33.961571 ] } },
{ "type": "Feature", "properties": { "name": "Kushology 5 Grams", "address": "4817 Normandie Ave", "city": "Los Angeles", "slug": "kushology-1", "state": "California", "type": "dispensary", "url": "https:\/\/weedmaps.com\/dispensaries\/kushology-1", "x": -118.300433, "y": 33.999555, "zipcode": 90037, "registered": false, "registered_name": null, "registered_address": null }, "geometry": { "type": "Point", "coordinates": [ -118.300433, 33.999555 ] } },
{ "type": "Feature", "properties": { "name": "LA 420", "address": "124 E. Florence St.", "city": "Los Angeles", "slug": "la-420", "state": "CA", "type": "dispensary", "url": "https:\/\/weedmaps.com\/dispensaries\/la-420", "x": -118.273001, "y": 33.974556, "zipcode": 90003, "registered": false, "registered_name": null, "registered_address": null }, "geometry": { "type": "Point", "coordinates": [ -118.273001, 33.974556 ] } },
{ "type": "Feature", "properties": { "name": "La Brea Collective - LBC", "address": "5057 W. Pico Blvd", "city": "Los Angeles", "slug": "la-brea-collective-2-2", "state": "CA", "type": "dispensary", "url": "https:\/\/weedmaps.com\/dispensaries\/la-brea-collective-2-2", "x": -118.347761, "y": 34.048176, "zipcode": 90019, "registered": true, "registered_name": "MID CITY CANNABIS CLUB INC", "registered_address": "5057 PICO 90019-4129" }, "geometry": { "type": "Point", "coordinates": [ -118.347761, 34.048176 ] } },
{ "type": "Feature", "properties": { "name": "La Brea Gardens 25 Cap", "address": "1289 S. La Brea Ave.", "city": "Los Angeles", "slug": "la-brea-gardens-25-cap", "state": "California", "type": "dispensary", "url": "https:\/\/weedmaps.com\/dispensaries\/la-brea-gardens-25-cap", "x": -118.34468, "y": 34.050989, "zipcode": 90019, "registered": false, "registered_name": null, "registered_address": null }, "geometry": { "type": "Point", "coordinates": [ -118.34468, 34.050989 ] } },
{ "type": "Feature", "properties": { "name": "LA Cannabis Co. - Inglewood", "address": "5993 S St Andrews Pl.", "city": "Los Angeles", "slug": "holistic-pain-relief-lax", "state": "CA", "type": "dispensary", "url": "https:\/\/weedmaps.com\/dispensaries\/holistic-pain-relief-lax", "x": -118.311999, "y": 33.985454, "zipcode": 90047, "registered": true, "registered_name": "HOLISTIC PAIN RELIEF INC", "registered_address": "5993 ST ANDREWS 90047-1308" }, "geometry": { "type": "Point", "coordinates": [ -118.311999, 33.985454 ] } },
{ "type": "Feature", "properties": { "name": "LA Cannabis Co. - La Brea", "address": "1603 S. La Brea Avenue", "city": "Los Angeles", "slug": "wcc-2", "state": "CA", "type": "dispensary", "url": "https:\/\/weedmaps.com\/dispensaries\/wcc-2", "x": -118.345797, "y": 34.045424, "zipcode": 90019, "registered": true, "registered_name": "MELROSE HERBAL COLLECTIVE INC", "registered_address": "1603 LA BREA 90019-5434" }, "geometry": { "type": "Point", "coordinates": [ -118.345797, 34.045424 ] } },
{ "type": "Feature", "properties": { "name": "LA Cannabis Co. - Los Angeles", "address": "3791 2nd Avenue", "city": "Los Angeles", "slug": "organic-green-treatment-center", "state": "CA", "type": "dispensary", "url": "https:\/\/weedmaps.com\/dispensaries\/organic-green-treatment-center", "x": -118.319333, "y": 34.018748, "zipcode": 90018, "registered": true, "registered_name": "ORGANIC GREEN TREATMENT CENTER INC", "registered_address": "3791 2ND 90018-4308" }, "geometry": { "type": "Point", "coordinates": [ -118.319333, 34.018748 ] } },
{ "type": "Feature", "properties": { "name": "LA CBD", "address": "778 North Virgil ave", "city": "Los Angeles", "slug": "la-cbd", "state": "CA", "type": "dispensary", "url": "https:\/\/weedmaps.com\/dispensaries\/la-cbd", "x": -118.286565, "y": 34.085475, "zipcode": 90029, "registered": false, "registered_name": null, "registered_address": null }, "geometry": { "type": "Point", "coordinates": [ -118.286565, 34.085475 ] } },
{ "type": "Feature", "properties": { "name": "La Fumee - CBD ONLY", "address": "10649 Burbank Blvd,", "city": "North Hollywood", "slug": "la-fumee", "state": "Ca", "type": "dispensary", "url": "https:\/\/weedmaps.com\/dispensaries\/la-fumee", "x": -118.363256, "y": 34.172384, "zipcode": 91601, "registered": false, "registered_name": null, "registered_address": null }, "geometry": { "type": "Point", "coordinates": [ -118.363256, 34.172384 ] } },
{ "type": "Feature", "properties": { "name": "LA GAS HOUSE - Los Angeles", "address": "3024 Wabash Ave", "city": "Los Angeles", "slug": "la-gas-house-los-angeles", "state": null, "type": "dispensary", "url": "https:\/\/weedmaps.com\/dispensaries\/la-gas-house-los-angeles", "x": -118.195751, "y": 34.049193, "zipcode": 90063, "registered": false, "registered_name": null, "registered_address": null }, "geometry": { "type": "Point", "coordinates": [ -118.195751, 34.049193 ] } },
{ "type": "Feature", "properties": { "name": "LA Kush - Los Angeles Kush", "address": "5470 Valley Blvd", "city": "Los Angeles", "slug": "los-angeles-kush-east-la", "state": "California", "type": "dispensary", "url": "https:\/\/weedmaps.com\/dispensaries\/los-angeles-kush-east-la", "x": -118.163739, "y": 34.073396, "zipcode": 90032, "registered": true, "registered_name": "CALIFORNIA HERBAL REMEDIES, INC.", "registered_address": "5470 VALLEY BLVD 90032-3530" }, "geometry": { "type": "Point", "coordinates": [ -118.163739, 34.073396 ] } },
{ "type": "Feature", "properties": { "name": "LA Kush - Los Angeles Kush - Echo Park", "address": "182 S Alvarado St.", "city": "Los Angeles", "slug": "los-angeles-kush-echo-park", "state": "CA", "type": "dispensary", "url": "https:\/\/weedmaps.com\/dispensaries\/los-angeles-kush-echo-park", "x": -118.271457, "y": 34.064294, "zipcode": 90057, "registered": false, "registered_name": null, "registered_address": null }, "geometry": { "type": "Point", "coordinates": [ -118.271457, 34.064294 ] } },
{ "type": "Feature", "properties": { "name": "LA Meds 4 less", "address": "1720 East 14th st SUITE #A", "city": "Los Angeles", "slug": "la-med-s-4-less", "state": "CA", "type": "dispensary", "url": "https:\/\/weedmaps.com\/dispensaries\/la-med-s-4-less", "x": -118.240412, "y": 34.0255439, "zipcode": 90021, "registered": false, "registered_name": null, "registered_address": null }, "geometry": { "type": "Point", "coordinates": [ -118.240412, 34.0255439 ] } },
{ "type": "Feature", "properties": { "name": "LA Treehouse", "address": "1216 West Florence Ave", "city": "Los Angeles", "slug": "la-treehouse", "state": "California", "type": "dispensary", "url": "https:\/\/weedmaps.com\/dispensaries\/la-treehouse", "x": -118.29693, "y": 33.974322, "zipcode": 90044, "registered": false, "registered_name": null, "registered_address": null }, "geometry": { "type": "Point", "coordinates": [ -118.29693, 33.974322 ] } },
{ "type": "Feature", "properties": { "name": "LA Wellness", "address": "6916 S. Western Ave Unit - B", "city": "Los Angeles", "slug": "la-wellness", "state": "CA", "type": "dispensary", "url": "https:\/\/weedmaps.com\/dispensaries\/la-wellness", "x": -118.308554, "y": 33.976471, "zipcode": 90047, "registered": false, "registered_name": null, "registered_address": null }, "geometry": { "type": "Point", "coordinates": [ -118.308554, 33.976471 ] } },
{ "type": "Feature", "properties": { "name": "LA Wonderland Marijuana Dispensary Recreational", "address": "150 Venice Blvd.", "city": "Los Angeles", "slug": "la-wonderland-caregivers", "state": "CA", "type": "dispensary", "url": "https:\/\/weedmaps.com\/dispensaries\/la-wonderland-caregivers", "x": -118.2640434, "y": 34.0344313, "zipcode": 90015, "registered": false, "registered_name": null, "registered_address": null }, "geometry": { "type": "Point", "coordinates": [ -118.2640434, 34.0344313 ] } },
{ "type": "Feature", "properties": { "name": "LA Zone", "address": "1140 S. Santee", "city": "Los Angeles", "slug": "la-zone", "state": "CA", "type": "dispensary", "url": "https:\/\/weedmaps.com\/dispensaries\/la-zone", "x": -118.25688, "y": 34.036771, "zipcode": 90015, "registered": false, "registered_name": null, "registered_address": null }, "geometry": { "type": "Point", "coordinates": [ -118.25688, 34.036771 ] } },
{ "type": "Feature", "properties": { "name": "LAC", "address": "326 N Vermont Ave", "city": "Los Angeles", "slug": "lac-la-collective", "state": "CA", "type": "dispensary", "url": "https:\/\/weedmaps.com\/dispensaries\/lac-la-collective", "x": -118.291419, "y": 34.077185, "zipcode": 90004, "registered": false, "registered_name": null, "registered_address": null }, "geometry": { "type": "Point", "coordinates": [ -118.291419, 34.077185 ] } },
{ "type": "Feature", "properties": { "name": "LAFinestCollectives", "address": "419 S Los Angeles St", "city": "Los Angeles", "slug": "lafinestcollectives", "state": "CA", "type": "dispensary", "url": "https:\/\/weedmaps.com\/dispensaries\/lafinestcollectives", "x": -118.246888, "y": 34.046991, "zipcode": 90013, "registered": false, "registered_name": null, "registered_address": null }, "geometry": { "type": "Point", "coordinates": [ -118.246888, 34.046991 ] } },
{ "type": "Feature", "properties": { "name": "LAVC", "address": "6132 Wilshire Blvd", "city": "Los Angeles", "slug": "los-angeles-valley-caregivers", "state": "CA", "type": "dispensary", "url": "https:\/\/weedmaps.com\/dispensaries\/los-angeles-valley-caregivers", "x": -118.363085, "y": 34.063139, "zipcode": 90048, "registered": true, "registered_name": "LOS ANGELES VALLEY CAREGIVERS, INC.", "registered_address": "6132 WILSHIRE 90048-5102" }, "geometry": { "type": "Point", "coordinates": [ -118.363085, 34.063139 ] } },
{ "type": "Feature", "properties": { "name": "LAXCC 21+", "address": "8332 Lincoln Blvd.", "city": "Los Angeles", "slug": "premium-pacific", "state": "CA", "type": "dispensary", "url": "https:\/\/weedmaps.com\/dispensaries\/premium-pacific", "x": -118.420744, "y": 33.961924, "zipcode": 90045, "registered": true, "registered_name": "LAX CC INC", "registered_address": "8332 LINCOLN 90045-2414" }, "geometry": { "type": "Point", "coordinates": [ -118.420744, 33.961924 ] } },
{ "type": "Feature", "properties": { "name": "Lights Out 20 Cap", "address": "844 W Gardena Blvd.", "city": "Gardena", "slug": "lights-out-20-cap", "state": "CA", "type": "dispensary", "url": "https:\/\/weedmaps.com\/dispensaries\/lights-out-20-cap", "x": -118.290633, "y": 33.881469, "zipcode": 90247, "registered": false, "registered_name": null, "registered_address": null }, "geometry": { "type": "Point", "coordinates": [ -118.290633, 33.881469 ] } },
{ "type": "Feature", "properties": { "name": "Lit Co", "address": "1323 South Flower Street", "city": "LA", "slug": "lit-co", "state": "CA", "type": "dispensary", "url": "https:\/\/weedmaps.com\/dispensaries\/lit-co", "x": -118.267763, "y": 34.039396, "zipcode": 90015, "registered": true, "registered_name": "THE LIVING EARTH WELLNESS CENTER COLLECTIVE INC", "registered_address": "1323 FLOWER 90015-2907" }, "geometry": { "type": "Point", "coordinates": [ -118.267763, 34.039396 ] } },
{ "type": "Feature", "properties": { "name": "Los Angeles Farmers - (AHPS)", "address": "824 E 17th St", "city": "Los Angeles", "slug": "los-angeles-farmers", "state": "CA", "type": "dispensary", "url": "https:\/\/weedmaps.com\/dispensaries\/los-angeles-farmers", "x": -118.253208, "y": 34.027245, "zipcode": 90021, "registered": true, "registered_name": "ABSOLUTE HERBAL PAIN SOLUTIONS INC", "registered_address": "824 17TH 90021-3002" }, "geometry": { "type": "Point", "coordinates": [ -118.253208, 34.027245 ] } },
{ "type": "Feature", "properties": { "name": "Loud 20 Cap", "address": "157-159 East Florence", "city": "Los Angeles", "slug": "loud-30-cap-collective", "state": "CA", "type": "dispensary", "url": "https:\/\/weedmaps.com\/dispensaries\/loud-30-cap-collective", "x": -118.272003, "y": 33.974956, "zipcode": 90003, "registered": false, "registered_name": null, "registered_address": null }, "geometry": { "type": "Point", "coordinates": [ -118.272003, 33.974956 ] } },
{ "type": "Feature", "properties": { "name": "Loud Pack 20 Cap Collective", "address": "2505 E Caesar Chavez Suite A&B", "city": "Los Angeles", "slug": "dank-city-3-2", "state": "CA", "type": "dispensary", "url": "https:\/\/weedmaps.com\/dispensaries\/dank-city-3-2", "x": -118.205412, "y": 34.046041, "zipcode": 90033, "registered": false, "registered_name": null, "registered_address": null }, "geometry": { "type": "Point", "coordinates": [ -118.205412, 34.046041 ] } },
{ "type": "Feature", "properties": { "name": "Manchester Remedy", "address": "2133 W Manchester Ave", "city": "Los Angeles", "slug": "manchester-remedy", "state": "Ca", "type": "dispensary", "url": "https:\/\/weedmaps.com\/dispensaries\/manchester-remedy", "x": -118.316834, "y": 33.96022, "zipcode": 90047, "registered": false, "registered_name": null, "registered_address": null }, "geometry": { "type": "Point", "coordinates": [ -118.316834, 33.96022 ] } },
{ "type": "Feature", "properties": { "name": "Marina Caregivers, Inc.", "address": "13453 Beach Avenue", "city": "Marina del Rey", "slug": "marina-caregivers-inc", "state": "California", "type": "dispensary", "url": "https:\/\/weedmaps.com\/dispensaries\/marina-caregivers-inc", "x": -118.445791, "y": 33.990801, "zipcode": 90292, "registered": true, "registered_name": "MARINA CAREGIVERS COOPERATIVE INC", "registered_address": "13453 BEACH 90292-5623" }, "geometry": { "type": "Point", "coordinates": [ -118.445791, 33.990801 ] } },
{ "type": "Feature", "properties": { "name": "Mary J's Cafe", "address": "21608 Sherman Way", "city": "Canoga Park", "slug": "mary-js-cafe", "state": "CA", "type": "dispensary", "url": "https:\/\/weedmaps.com\/dispensaries\/mary-js-cafe", "x": -118.600547, "y": 34.200729, "zipcode": 91303, "registered": false, "registered_name": null, "registered_address": null }, "geometry": { "type": "Point", "coordinates": [ -118.600547, 34.200729 ] } },
{ "type": "Feature", "properties": { "name": "Mary Janes - Hollywood", "address": "4901 Melrose Ave", "city": "Los Angeles", "slug": "mary-janes-collective", "state": "CA", "type": "dispensary", "url": "https:\/\/weedmaps.com\/dispensaries\/mary-janes-collective", "x": -118.30708, "y": 34.083579, "zipcode": 90029, "registered": true, "registered_name": "MARY JANES COLLECTIVE CAREGIVERS", "registered_address": "4901 MELROSE 90029-3731" }, "geometry": { "type": "Point", "coordinates": [ -118.30708, 34.083579 ] } },
{ "type": "Feature", "properties": { "name": "Medgo", "address": "3438 West 8th Street", "city": "Korea Town", "slug": "select-supply-2", "state": "CA", "type": "dispensary", "url": "https:\/\/weedmaps.com\/dispensaries\/select-supply-2", "x": -118.304726, "y": 34.05722, "zipcode": 90005, "registered": false, "registered_name": null, "registered_address": null }, "geometry": { "type": "Point", "coordinates": [ -118.304726, 34.05722 ] } },
{ "type": "Feature", "properties": { "name": "Medical Caregivers Company", "address": "1039 North Mission Rd.", "city": "Los Angeles", "slug": "medical-caregivers-co-op-2", "state": "CA", "type": "dispensary", "url": "https:\/\/weedmaps.com\/dispensaries\/medical-caregivers-co-op-2", "x": -118.2157238, "y": 34.0595878, "zipcode": 90033, "registered": true, "registered_name": "MEDICAL CAREGIVERS COOPERATIVE", "registered_address": "1039 MISSION 90033-1218" }, "geometry": { "type": "Point", "coordinates": [ -118.2157238, 34.0595878 ] } },
{ "type": "Feature", "properties": { "name": "MedMart 30 CAP", "address": "5977 S Broadway", "city": "Los Angeles", "slug": "gasbankla", "state": "CA", "type": "dispensary", "url": "https:\/\/weedmaps.com\/dispensaries\/gasbankla", "x": -118.27848, "y": 33.985327, "zipcode": 90003, "registered": false, "registered_name": null, "registered_address": null }, "geometry": { "type": "Point", "coordinates": [ -118.27848, 33.985327 ] } },
{ "type": "Feature", "properties": { "name": "MedMen Abbot Kinney", "address": "1310 Abbot Kinney Blvd.", "city": "Venice", "slug": "medmen-venice-beach-abbot-kinney", "state": "CA", "type": "dispensary", "url": "https:\/\/weedmaps.com\/dispensaries\/medmen-venice-beach-abbot-kinney", "x": -118.467878, "y": 33.990829, "zipcode": 90291, "registered": true, "registered_name": "VENICE CAREGIVER FOUNDATION INC", "registered_address": "1310 ABBOT KINNEY 90291-3758" }, "geometry": { "type": "Point", "coordinates": [ -118.467878, 33.990829 ] } },
{ "type": "Feature", "properties": { "name": "MedMen Beverly Hills", "address": "110 S. Robertson Blvd", "city": "Los Angeles", "slug": "medmen-beverly-hills", "state": "CA", "type": "dispensary", "url": "https:\/\/weedmaps.com\/dispensaries\/medmen-beverly-hills", "x": -118.38352, "y": 34.074921, "zipcode": 90048, "registered": true, "registered_name": "CYON CORPORATION INC", "registered_address": "110 ROBERTSON 90048-3208" }, "geometry": { "type": "Point", "coordinates": [ -118.38352, 34.074921 ] } },
{ "type": "Feature", "properties": { "name": "MedMen Downtown (DTLA)", "address": "735 S Broadway", "city": "Los Angeles", "slug": "medmen-2", "state": "CA", "type": "dispensary", "url": "https:\/\/weedmaps.com\/dispensaries\/medmen-2", "x": -118.254446, "y": 34.044597, "zipcode": 90014, "registered": true, "registered_name": "ADVANCED PATIENTS' COLLECTIVE", "registered_address": "735 BROADWAY 90014-2878" }, "geometry": { "type": "Point", "coordinates": [ -118.254446, 34.044597 ] } },
{ "type": "Feature", "properties": { "name": "MedMen LAX Airport", "address": "8740 S. Sepulveda Blvd", "city": "Los Angeles", "slug": "medmen-3", "state": "CA", "type": "dispensary", "url": "https:\/\/weedmaps.com\/dispensaries\/medmen-3", "x": -118.396137, "y": 33.957636, "zipcode": 90045, "registered": true, "registered_name": "NATURES CURE INC", "registered_address": "8740 SEPULVEDA 90045-4000" }, "geometry": { "type": "Point", "coordinates": [ -118.396137, 33.957636 ] } },
{ "type": "Feature", "properties": { "name": "MedMen Lincoln Blvd.", "address": "410 Lincoln Blvd", "city": "Venice", "slug": "medmen-venice", "state": "CA", "type": "dispensary", "url": "https:\/\/weedmaps.com\/dispensaries\/medmen-venice", "x": -118.466121, "y": 34.00079, "zipcode": 90291, "registered": true, "registered_name": "THE COMPASSION NETWORK LLC", "registered_address": "410 LINCOLN 90291-2829" }, "geometry": { "type": "Point", "coordinates": [ -118.466121, 34.00079 ] } },
{ "type": "Feature", "properties": { "name": "Melrose Place 25 Cap", "address": "5635 Melrose Ave. Unit A", "city": "Los Angeles", "slug": "melrose-place", "state": "CA", "type": "dispensary", "url": "https:\/\/weedmaps.com\/dispensaries\/melrose-place", "x": -118.32348, "y": 34.083805, "zipcode": 90038, "registered": false, "registered_name": null, "registered_address": null }, "geometry": { "type": "Point", "coordinates": [ -118.32348, 34.083805 ] } },
{ "type": "Feature", "properties": { "name": "Merica Cannabis Company", "address": "7503 Laurel Canyon Blvd", "city": "North Hollywood", "slug": "merica-cannabis-company", "state": "CA", "type": "dispensary", "url": "https:\/\/weedmaps.com\/dispensaries\/merica-cannabis-company", "x": -118.396719, "y": 34.206955, "zipcode": 91605, "registered": false, "registered_name": null, "registered_address": null }, "geometry": { "type": "Point", "coordinates": [ -118.396719, 34.206955 ] } },
{ "type": "Feature", "properties": { "name": "Metro Green Meds - Downtown LA", "address": "1616 S. Los Angeles St", "city": "Downtown LA", "slug": "metro-green-meds-downtown-la", "state": "CA", "type": "dispensary", "url": "https:\/\/weedmaps.com\/dispensaries\/metro-green-meds-downtown-la", "x": -118.262105, "y": 34.032338, "zipcode": 90015, "registered": false, "registered_name": null, "registered_address": null }, "geometry": { "type": "Point", "coordinates": [ -118.262105, 34.032338 ] } },
{ "type": "Feature", "properties": { "name": "Mission Hills Patients Collective - Northridge \/ Reseda \/ Chatsworth", "address": "18446 Hart St. Unit M2", "city": "Reseda", "slug": "bmc-2", "state": "CA", "type": "dispensary", "url": "https:\/\/weedmaps.com\/dispensaries\/bmc-2", "x": -118.5348403, "y": 34.1972522, "zipcode": 91335, "registered": true, "registered_name": "MISSION HILLS PATIENTS COLLECTIVE, INC", "registered_address": "18446 HART 91335-4215" }, "geometry": { "type": "Point", "coordinates": [ -118.5348403, 34.1972522 ] } },
{ "type": "Feature", "properties": { "name": "MMC", "address": "12737 Glenoaks Blvd. UNIT #15", "city": "Sylmar", "slug": "mmc-3", "state": "CA", "type": "dispensary", "url": "https:\/\/weedmaps.com\/dispensaries\/mmc-3", "x": -118.44293, "y": 34.301736, "zipcode": 91342, "registered": false, "registered_name": null, "registered_address": null }, "geometry": { "type": "Point", "coordinates": [ -118.44293, 34.301736 ] } },
{ "type": "Feature", "properties": { "name": "MMD - North Hollywood", "address": "4720 Vineland Avenue", "city": "North Hollywood", "slug": "californiacompassionate", "state": "CA", "type": "dispensary", "url": "https:\/\/weedmaps.com\/dispensaries\/californiacompassionate", "x": -118.3702321, "y": 34.1561445, "zipcode": 91602, "registered": true, "registered_name": "CALIFORNIA COMPASSIONATE CARE NETWORK INC", "registered_address": "4720 VINELAND 91602-1222" }, "geometry": { "type": "Point", "coordinates": [ -118.3702321, 34.1561445 ] } },
{ "type": "Feature", "properties": { "name": "MMD Hollywood", "address": "1515 N Cahuenga Blvd", "city": "Los Angeles", "slug": "mmd", "state": "CA", "type": "dispensary", "url": "https:\/\/weedmaps.com\/dispensaries\/mmd", "x": -118.329756, "y": 34.098493, "zipcode": 90028, "registered": true, "registered_name": "MMD, INC.", "registered_address": "1515 CAHUENGA 90028-7312" }, "geometry": { "type": "Point", "coordinates": [ -118.329756, 34.098493 ] } },
{ "type": "Feature", "properties": { "name": "MOTA (Medicine Of The Angels)", "address": "4001 West Sunset BLVD", "city": "Los Angeles", "slug": "soho-sherman-oaks-holistic-oasis", "state": "CA", "type": "dispensary", "url": "https:\/\/weedmaps.com\/dispensaries\/soho-sherman-oaks-holistic-oasis", "x": -118.280382, "y": 34.092881, "zipcode": 90029, "registered": true, "registered_name": "MOTA INC", "registered_address": "4001 SUNSET 90029-2105" }, "geometry": { "type": "Point", "coordinates": [ -118.280382, 34.092881 ] } },
{ "type": "Feature", "properties": { "name": "Mother Mary Janes Church of Cannabis", "address": "1101 North Western ave", "city": "Los Angeles", "slug": "mother-mary-janes-church-of-cannabis-2", "state": "CA", "type": "dispensary", "url": "https:\/\/weedmaps.com\/dispensaries\/mother-mary-janes-church-of-cannabis-2", "x": -118.309363, "y": 34.091135, "zipcode": 90029, "registered": false, "registered_name": null, "registered_address": null }, "geometry": { "type": "Point", "coordinates": [ -118.309363, 34.091135 ] } },
{ "type": "Feature", "properties": { "name": "Mother Nature Remedy Caregivers", "address": "22817 Ventura Blvd", "city": "Woodland Hills", "slug": "mnrcoop", "state": "CA", "type": "dispensary", "url": "https:\/\/weedmaps.com\/dispensaries\/mnrcoop", "x": -118.624032, "y": 34.166071, "zipcode": 91364, "registered": true, "registered_name": "MOTHER NATURE'S REMEDY CAREGIVERS INC", "registered_address": "22815 VENTURA 91364-1202" }, "geometry": { "type": "Point", "coordinates": [ -118.624032, 34.166071 ] } },
{ "type": "Feature", "properties": { "name": "Mr Green", "address": "1804 S Main St", "city": "Los Angeles", "slug": "mr-green-2", "state": "CA", "type": "dispensary", "url": "https:\/\/weedmaps.com\/dispensaries\/mr-green-2", "x": -118.263564, "y": 34.031786, "zipcode": 90015, "registered": false, "registered_name": null, "registered_address": null }, "geometry": { "type": "Point", "coordinates": [ -118.263564, 34.031786 ] } },
{ "type": "Feature", "properties": { "name": "Mr. T's Collective PRE-ICO", "address": "6820 Crenshaw Blvd", "city": "Los Angeles", "slug": "mr-t-s-collective", "state": "CA", "type": "dispensary", "url": "https:\/\/weedmaps.com\/dispensaries\/mr-t-s-collective", "x": -118.330521, "y": 33.976316, "zipcode": 90043, "registered": false, "registered_name": null, "registered_address": null }, "geometry": { "type": "Point", "coordinates": [ -118.330521, 33.976316 ] } },
{ "type": "Feature", "properties": { "name": "NACCC", "address": "1719 Pacific Coast Highway", "city": "Lomita", "slug": "new-age-compassion-care", "state": "CA", "type": "dispensary", "url": "https:\/\/weedmaps.com\/dispensaries\/new-age-compassion-care", "x": -118.308412, "y": 33.789777, "zipcode": 90717, "registered": false, "registered_name": null, "registered_address": null }, "geometry": { "type": "Point", "coordinates": [ -118.308412, 33.789777 ] } },
{ "type": "Feature", "properties": { "name": "Natural Remedies Caregivers", "address": "927 1\/2 Western ave.", "city": "Los Angeles", "slug": "nrc", "state": "CA", "type": "dispensary", "url": "https:\/\/weedmaps.com\/dispensaries\/nrc", "x": -118.3091782, "y": 34.0874643, "zipcode": 90029, "registered": true, "registered_name": "NATURAL REMEDIES, INC", "registered_address": "927 WESTERN 90029-3215" }, "geometry": { "type": "Point", "coordinates": [ -118.309178200000019, 34.0874643 ] } },
{ "type": "Feature", "properties": { "name": "Nature's Therapy", "address": "19709 Ventura Blvd Unit 103", "city": "Woodland Hills", "slug": "high-spot", "state": "CA", "type": "dispensary", "url": "https:\/\/weedmaps.com\/dispensaries\/high-spot", "x": -118.562821, "y": 34.172819, "zipcode": 91364, "registered": false, "registered_name": null, "registered_address": null }, "geometry": { "type": "Point", "coordinates": [ -118.562821, 34.172819 ] } },
{ "type": "Feature", "properties": { "name": "New Age Care Center", "address": "350 W Martin Luther King Jr Blvd", "city": "Los Angeles", "slug": "la-new-age-collective-center", "state": "CA", "type": "dispensary", "url": "https:\/\/weedmaps.com\/dispensaries\/la-new-age-collective-center", "x": -118.279622, "y": 34.010792, "zipcode": 90037, "registered": true, "registered_name": "NEW AGE COMPASSION CARE CENTER CORP", "registered_address": "350 MARTIN LUTHER KING JR 90037-4529" }, "geometry": { "type": "Point", "coordinates": [ -118.279622, 34.010792 ] } },
{ "type": "Feature", "properties": { "name": "New Amsterdam Naturals", "address": "9021 Exposition Blvd", "city": "Los Angeles", "slug": "nncc-nature-s-natural-collective-care", "state": "CA", "type": "dispensary", "url": "https:\/\/weedmaps.com\/dispensaries\/nncc-nature-s-natural-collective-care", "x": -118.392697, "y": 34.028878, "zipcode": 90034, "registered": true, "registered_name": "NATURE'S NATURAL COOPERATIVE CARE INC", "registered_address": "9021 EXPOSITION 90034-3305" }, "geometry": { "type": "Point", "coordinates": [ -118.392697, 34.028878 ] } },
{ "type": "Feature", "properties": { "name": "New Amsterdam Naturals", "address": "9021 Exposition Blvd", "city": "Los Angeles", "slug": "new-amsterdam-naturals", "state": "CA", "type": "dispensary", "url": "https:\/\/weedmaps.com\/dispensaries\/new-amsterdam-naturals", "x": -118.392697, "y": 34.028878, "zipcode": 90034, "registered": true, "registered_name": "NATURE'S NATURAL COOPERATIVE CARE INC", "registered_address": "9021 EXPOSITION 90034-3305" }, "geometry": { "type": "Point", "coordinates": [ -118.392697, 34.028878 ] } },
{ "type": "Feature", "properties": { "name": "NOHO CC : Pre-ICO", "address": "8085 Webb Ave", "city": "North Hollywood", "slug": "nohocc-van-nuys-oasis", "state": "CA", "type": "dispensary", "url": "https:\/\/weedmaps.com\/dispensaries\/nohocc-van-nuys-oasis", "x": -118.389845, "y": 34.217639, "zipcode": 91605, "registered": true, "registered_name": "NORTH HOLLYWOOD COMPASSIONATE CAREGIVERS INC", "registered_address": "8085 WEBB 91605-1505" }, "geometry": { "type": "Point", "coordinates": [ -118.389845, 34.217639 ] } },
{ "type": "Feature", "properties": { "name": "Noho Wellness Center", "address": "4942 Vineland Ave", "city": "North Hollywood", "slug": "noho-wellness-center", "state": "CA", "type": "dispensary", "url": "https:\/\/weedmaps.com\/dispensaries\/noho-wellness-center", "x": -118.369982, "y": 34.160602, "zipcode": 91601, "registered": false, "registered_name": null, "registered_address": null }, "geometry": { "type": "Point", "coordinates": [ -118.369982, 34.160602 ] } },
{ "type": "Feature", "properties": { "name": "NoHo's Finest (PRE - ICO)", "address": "11739 VOSE ST", "city": "NORTH HOLLYWOOD", "slug": "noho-s-finest", "state": "CA", "type": "dispensary", "url": "https:\/\/weedmaps.com\/dispensaries\/noho-s-finest", "x": -118.389203, "y": 34.198729, "zipcode": 91605, "registered": false, "registered_name": null, "registered_address": null }, "geometry": { "type": "Point", "coordinates": [ -118.389203, 34.198729 ] } },
{ "type": "Feature", "properties": { "name": "Normandie House of BOGO", "address": "6424 South Normandie", "city": "Los Angeles", "slug": "normandy", "state": "CA", "type": "dispensary", "url": "https:\/\/weedmaps.com\/dispensaries\/normandy", "x": -118.300004, "y": 33.980797, "zipcode": 90044, "registered": false, "registered_name": null, "registered_address": null }, "geometry": { "type": "Point", "coordinates": [ -118.300004, 33.980797 ] } },
{ "type": "Feature", "properties": { "name": "NORMANDIE MEDICAL CENTER", "address": "4821 S Normandie Ave", "city": "Los Angeles", "slug": "normandie-medical-center", "state": "CA", "type": "dispensary", "url": "https:\/\/weedmaps.com\/dispensaries\/normandie-medical-center", "x": -118.300359, "y": 33.999466, "zipcode": 90037, "registered": false, "registered_name": null, "registered_address": null }, "geometry": { "type": "Point", "coordinates": [ -118.300359, 33.999466 ] } },
{ "type": "Feature", "properties": { "name": "Nurple Purps", "address": "4716 Melrose Avenue", "city": "Los Angeles", "slug": "deluxe-collective", "state": "CA", "type": "dispensary", "url": "https:\/\/weedmaps.com\/dispensaries\/deluxe-collective", "x": -118.302988, "y": 34.083268, "zipcode": 90029, "registered": false, "registered_name": null, "registered_address": null }, "geometry": { "type": "Point", "coordinates": [ -118.302988, 34.083268 ] } },
{ "type": "Feature", "properties": { "name": "Oceanside Collective", "address": "5859 South Broadway Suite B", "city": "Los Angeles", "slug": "oceans-la", "state": "CA", "type": "dispensary", "url": "https:\/\/weedmaps.com\/dispensaries\/oceans-la", "x": -118.278325, "y": 33.987945, "zipcode": 90003, "registered": false, "registered_name": null, "registered_address": null }, "geometry": { "type": "Point", "coordinates": [ -118.278325, 33.987945 ] } },
{ "type": "Feature", "properties": { "name": "OG 20 CAP", "address": "5119 Long Beach Avenue", "city": "Los Angeles", "slug": "og-30-cap-collective", "state": "CA", "type": "dispensary", "url": "https:\/\/weedmaps.com\/dispensaries\/og-30-cap-collective", "x": -118.243594, "y": 33.99589, "zipcode": 90011, "registered": false, "registered_name": null, "registered_address": null }, "geometry": { "type": "Point", "coordinates": [ -118.243594, 33.99589 ] } },
{ "type": "Feature", "properties": { "name": "OG Florence 25 Cap", "address": "1649 W Florence Ave", "city": "Los Angeles", "slug": "top-shelf-25-cap", "state": "CA", "type": "dispensary", "url": "https:\/\/weedmaps.com\/dispensaries\/top-shelf-25-cap", "x": -118.306316, "y": 33.974786, "zipcode": 90047, "registered": false, "registered_name": null, "registered_address": null }, "geometry": { "type": "Point", "coordinates": [ -118.306316, 33.974786 ] } },
{ "type": "Feature", "properties": { "name": "OG HIGH LIFE", "address": "1506 West Manchester Ave", "city": "LOS ANGELES", "slug": "og-high-life", "state": "CA", "type": "dispensary", "url": "https:\/\/weedmaps.com\/dispensaries\/og-high-life", "x": -118.302802, "y": 33.959786, "zipcode": 90047, "registered": false, "registered_name": null, "registered_address": null }, "geometry": { "type": "Point", "coordinates": [ -118.302802, 33.959786 ] } },
{ "type": "Feature", "properties": { "name": "OG Roots", "address": "14626 Victory Blvd", "city": "Van Nuys", "slug": "og-roots", "state": "CA", "type": "dispensary", "url": "https:\/\/weedmaps.com\/dispensaries\/og-roots", "x": -118.451929, "y": 34.18651, "zipcode": 91411, "registered": false, "registered_name": null, "registered_address": null }, "geometry": { "type": "Point", "coordinates": [ -118.451929, 34.18651 ] } },
{ "type": "Feature", "properties": { "name": "OG Top Shop", "address": "8836 South Vermont", "city": "Los Angeles", "slug": "vermont-gas", "state": "CA", "type": "dispensary", "url": "https:\/\/weedmaps.com\/dispensaries\/vermont-gas", "x": -118.291209, "y": 33.957239, "zipcode": 90044, "registered": false, "registered_name": null, "registered_address": null }, "geometry": { "type": "Point", "coordinates": [ -118.291209, 33.957239 ] } },
{ "type": "Feature", "properties": { "name": "Og Western 20 Cap", "address": "8407 S Western Ave", "city": "Los Angeles", "slug": "pacific-city-collective", "state": "CA", "type": "dispensary", "url": "https:\/\/weedmaps.com\/dispensaries\/pacific-city-collective", "x": -118.309406, "y": 33.962526, "zipcode": 90047, "registered": false, "registered_name": null, "registered_address": null }, "geometry": { "type": "Point", "coordinates": [ -118.309406, 33.962526 ] } },
{ "type": "Feature", "properties": { "name": "Olympic 25", "address": "3750 East Olympic Blvd.", "city": "Los Angeles", "slug": "olympic-25", "state": "CA", "type": "dispensary", "url": "https:\/\/weedmaps.com\/dispensaries\/olympic-25", "x": -118.194604, "y": 34.018665, "zipcode": 90023, "registered": false, "registered_name": null, "registered_address": null }, "geometry": { "type": "Point", "coordinates": [ -118.194604, 34.018665 ] } },
{ "type": "Feature", "properties": { "name": "Olympic Best 20", "address": "3609 E Olympic BLVD", "city": "Los Angeles", "slug": "only-20-cap", "state": "CA", "type": "dispensary", "url": "https:\/\/weedmaps.com\/dispensaries\/only-20-cap", "x": -118.200565, "y": 34.01934, "zipcode": 90023, "registered": false, "registered_name": null, "registered_address": null }, "geometry": { "type": "Point", "coordinates": [ -118.200565, 34.01934 ] } },
{ "type": "Feature", "properties": { "name": "OMG Avalon 20 Cap Collective", "address": "8018 Avalon Blvd", "city": "Los Angeles", "slug": "535-collective", "state": "CA", "type": "dispensary", "url": "https:\/\/weedmaps.com\/dispensaries\/535-collective", "x": -118.264877, "y": 33.965903, "zipcode": 90003, "registered": false, "registered_name": null, "registered_address": null }, "geometry": { "type": "Point", "coordinates": [ -118.264877, 33.965903 ] } },
{ "type": "Feature", "properties": { "name": "OMG GROUP", "address": "13567 Glenoaks Blvd.", "city": "Sylmar", "slug": "omg-group", "state": "CA", "type": "dispensary", "url": "https:\/\/weedmaps.com\/dispensaries\/omg-group", "x": -118.4637737, "y": 34.3184215, "zipcode": 91342, "registered": false, "registered_name": null, "registered_address": null }, "geometry": { "type": "Point", "coordinates": [ -118.4637737, 34.3184215 ] } },
{ "type": "Feature", "properties": { "name": "One Stop Shop 20 Cap Collective", "address": "11410 S Central Ave", "city": "Los Angeles", "slug": "one-stop-shop-25-cap-collective", "state": "CA", "type": "dispensary", "url": "https:\/\/weedmaps.com\/dispensaries\/one-stop-shop-25-cap-collective", "x": -118.253938, "y": 33.930619, "zipcode": 90059, "registered": false, "registered_name": null, "registered_address": null }, "geometry": { "type": "Point", "coordinates": [ -118.253938, 33.930619 ] } },
{ "type": "Feature", "properties": { "name": "Oz n Bounce Drive-Thru", "address": "416 W 8th St", "city": "Downtown Los Angeles", "slug": "oz-n-bounce", "state": "CA", "type": "dispensary", "url": "https:\/\/weedmaps.com\/dispensaries\/oz-n-bounce", "x": -118.244262, "y": 34.067299, "zipcode": 90014, "registered": false, "registered_name": null, "registered_address": null }, "geometry": { "type": "Point", "coordinates": [ -118.244262, 34.067299 ] } },
{ "type": "Feature", "properties": { "name": "Oz N Bounce Drive-Thru", "address": "1460 Vine St.", "city": "Los Angeles", "slug": "oz-n-bounce-drive-thru", "state": null, "type": "dispensary", "url": "https:\/\/weedmaps.com\/dispensaries\/oz-n-bounce-drive-thru", "x": -118.326369, "y": 34.097363, "zipcode": 90028, "registered": false, "registered_name": null, "registered_address": null }, "geometry": { "type": "Point", "coordinates": [ -118.326369, 34.097363 ] } },
{ "type": "Feature", "properties": { "name": "PAC House Of Top Shelf - 25 Cap", "address": "12814 Bradley Ave", "city": "Sylmar", "slug": "patients-alternative-caregiver-pac", "state": "CA", "type": "dispensary", "url": "https:\/\/weedmaps.com\/dispensaries\/patients-alternative-caregiver-pac", "x": -118.45635, "y": 34.303359, "zipcode": 91342, "registered": false, "registered_name": null, "registered_address": null }, "geometry": { "type": "Point", "coordinates": [ -118.45635, 34.303359 ] } },
{ "type": "Feature", "properties": { "name": "Patients and Caregivers", "address": "6141 Vineland Ave.", "city": "North Hollywood", "slug": "patients-and-caregivers", "state": "CA", "type": "dispensary", "url": "https:\/\/weedmaps.com\/dispensaries\/patients-and-caregivers", "x": -118.370629, "y": 34.1823539, "zipcode": 91606, "registered": true, "registered_name": "PATIENTS AND CAREGIVERS LOS ANGELES INC", "registered_address": "6141 VINELAND 91606-4913" }, "geometry": { "type": "Point", "coordinates": [ -118.370629, 34.1823539 ] } },
{ "type": "Feature", "properties": { "name": "PCH Herbarium", "address": "1605 Pacific Coast Highway Suite #107", "city": "Harbor City", "slug": "pch-herbarium", "state": "CA", "type": "dispensary", "url": "https:\/\/weedmaps.com\/dispensaries\/pch-herbarium", "x": -118.304773, "y": 33.789798, "zipcode": 90710, "registered": false, "registered_name": null, "registered_address": null }, "geometry": { "type": "Point", "coordinates": [ -118.304773, 33.789798 ] } },
{ "type": "Feature", "properties": { "name": "People Collective 25 CAP", "address": "8926 S. Western Ave", "city": "Los Angeles", "slug": "people-collective-25-cap", "state": "CA", "type": "dispensary", "url": "https:\/\/weedmaps.com\/dispensaries\/people-collective-25-cap", "x": -118.308714, "y": 33.955482, "zipcode": 90047, "registered": false, "registered_name": null, "registered_address": null }, "geometry": { "type": "Point", "coordinates": [ -118.308714, 33.955482 ] } },
{ "type": "Feature", "properties": { "name": "Pico Gardens", "address": "2753 W Pico Blvd", "city": "Los Angeles", "slug": "pico-gardens-2", "state": "California", "type": "dispensary", "url": "https:\/\/weedmaps.com\/dispensaries\/pico-gardens-2", "x": -118.299046, "y": 34.047393, "zipcode": 90006, "registered": false, "registered_name": null, "registered_address": null }, "geometry": { "type": "Point", "coordinates": [ -118.299046, 34.047393 ] } },
{ "type": "Feature", "properties": { "name": "Planet Noho", "address": "12814 Riverside Drive", "city": "North Hollywood", "slug": "planet-noho", "state": "California", "type": "dispensary", "url": "https:\/\/weedmaps.com\/dispensaries\/planet-noho", "x": -118.412031, "y": 34.15732, "zipcode": 91601, "registered": false, "registered_name": null, "registered_address": null }, "geometry": { "type": "Point", "coordinates": [ -118.412031, 34.15732 ] } },
{ "type": "Feature", "properties": { "name": "Platinum Club", "address": "18441 Vanowen St", "city": "Reseda", "slug": "platinum-club-la", "state": "CA", "type": "dispensary", "url": "https:\/\/weedmaps.com\/dispensaries\/platinum-club-la", "x": -118.534803, "y": 34.193901, "zipcode": 91335, "registered": true, "registered_name": "PLATINUM CLUB INC", "registered_address": "18441 VANOWEN 91335-5324" }, "geometry": { "type": "Point", "coordinates": [ -118.534803, 34.193901 ] } },
{ "type": "Feature", "properties": { "name": "Positive Energy Associated", "address": "1206 W. Anaheim St.", "city": "Wilmington", "slug": "willmingtons-finest", "state": "CA", "type": "dispensary", "url": "https:\/\/weedmaps.com\/dispensaries\/willmingtons-finest", "x": -118.277173, "y": 33.778943, "zipcode": 90744, "registered": false, "registered_name": null, "registered_address": null }, "geometry": { "type": "Point", "coordinates": [ -118.277173, 33.778943 ] } },
{ "type": "Feature", "properties": { "name": "Pot Spot Collective", "address": "900 S Westmoreland ave. Ste 102", "city": "Los Angeles", "slug": "pot-spot-collective", "state": "CA", "type": "dispensary", "url": "https:\/\/weedmaps.com\/dispensaries\/pot-spot-collective", "x": -118.288771, "y": 34.055666, "zipcode": 90006, "registered": false, "registered_name": null, "registered_address": null }, "geometry": { "type": "Point", "coordinates": [ -118.288771, 34.055666 ] } },
{ "type": "Feature", "properties": { "name": "Project Cannabis Boyle Heights", "address": "1500 Esperanza St", "city": "LOS ANGELES", "slug": "ggr", "state": "CA", "type": "dispensary", "url": "https:\/\/weedmaps.com\/dispensaries\/ggr", "x": -118.20062, "y": 34.015485, "zipcode": 90023, "registered": true, "registered_name": "GOURMET GREEN ROOM INC", "registered_address": "1500 ESPERANZA 90023-3915" }, "geometry": { "type": "Point", "coordinates": [ -118.20062, 34.015485 ] } },
{ "type": "Feature", "properties": { "name": "Project Cannabis DTLA", "address": "1555 Newton St.", "city": "Los Angeles", "slug": "project-cannabis", "state": "CA", "type": "dispensary", "url": "https:\/\/weedmaps.com\/dispensaries\/project-cannabis", "x": -118.241626, "y": 34.025814, "zipcode": 90021, "registered": false, "registered_name": null, "registered_address": null }, "geometry": { "type": "Point", "coordinates": [ -118.241626, 34.025814 ] } },
{ "type": "Feature", "properties": { "name": "Project Cannabis NoHo", "address": "10842¬†Magnolia blvd", "city": "North Hollywood", "slug": "green-valley-collective-2", "state": "CA", "type": "dispensary", "url": "https:\/\/weedmaps.com\/dispensaries\/green-valley-collective-2", "x": -118.367371, "y": 34.164791, "zipcode": 91601, "registered": true, "registered_name": "RESOURCE REFERRAL SERVICES INC", "registered_address": "10842 MAGNOLIA 91601-3920" }, "geometry": { "type": "Point", "coordinates": [ -118.367371, 34.164791 ] } },
{ "type": "Feature", "properties": { "name": "PureLife Alternative Wellness Center", "address": "20751 Marilla St", "city": "Chatsworth", "slug": "purelife-alternative-wellness-center-2", "state": "CA", "type": "dispensary", "url": "https:\/\/weedmaps.com\/dispensaries\/purelife-alternative-wellness-center-2", "x": -118.586159, "y": 34.248401, "zipcode": 91311, "registered": true, "registered_name": "PURA VIDA TRES INC", "registered_address": "20751 MARILLA 91311-4408" }, "geometry": { "type": "Point", "coordinates": [ -118.586159, 34.248401 ] } },
{ "type": "Feature", "properties": { "name": "Red Moon", "address": "14350 Oxnard St", "city": "Van Nuys", "slug": "redmoon-holistic-wellness-center", "state": "CA", "type": "dispensary", "url": "https:\/\/weedmaps.com\/dispensaries\/redmoon-holistic-wellness-center", "x": -118.44618, "y": 34.179103, "zipcode": 91401, "registered": true, "registered_name": "RED MOON INC", "registered_address": "14350 OXNARD 91401-3311" }, "geometry": { "type": "Point", "coordinates": [ -118.44618, 34.179103 ] } },
{ "type": "Feature", "properties": { "name": "Reefer Room", "address": "1122 East 14th Street", "city": "Los Angeles", "slug": "reefer-room", "state": "CA", "type": "dispensary", "url": "https:\/\/weedmaps.com\/dispensaries\/reefer-room", "x": -118.248478, "y": 34.028887, "zipcode": 90021, "registered": false, "registered_name": null, "registered_address": null }, "geometry": { "type": "Point", "coordinates": [ -118.248478, 34.028887 ] } },
{ "type": "Feature", "properties": { "name": "REMEDISTA CBD - Grand Opening 05\/18!", "address": "22831 Ventura Blvd", "city": "Woodland Hills", "slug": "remidista-cbd-coming-soon", "state": "California", "type": "dispensary", "url": "https:\/\/weedmaps.com\/dispensaries\/remidista-cbd-coming-soon", "x": -118.624429, "y": 34.165918, "zipcode": 91364, "registered": false, "registered_name": null, "registered_address": null }, "geometry": { "type": "Point", "coordinates": [ -118.624429, 34.165918 ] } },
{ "type": "Feature", "properties": { "name": "Reseda Discount Caregivers", "address": "18448 Oxnard Street", "city": "Reseda", "slug": "reseda-discount-caregivers-van-nuys", "state": "CA", "type": "dispensary", "url": "https:\/\/weedmaps.com\/dispensaries\/reseda-discount-caregivers-van-nuys", "x": -118.535003, "y": 34.179629, "zipcode": 91356, "registered": true, "registered_name": "RDC COLLECTIVE CORP", "registered_address": "18448 OXNARD 91356-1504" }, "geometry": { "type": "Point", "coordinates": [ -118.535003, 34.179629 ] } },
{ "type": "Feature", "properties": { "name": "Rollin Smoke", "address": "5710 West Manchester Avenue", "city": "Los Angeles", "slug": "urban-medicinals-inc-2", "state": "CA", "type": "dispensary", "url": "https:\/\/weedmaps.com\/dispensaries\/urban-medicinals-inc-2", "x": -118.381047, "y": 33.959772, "zipcode": 90045, "registered": false, "registered_name": null, "registered_address": null }, "geometry": { "type": "Point", "coordinates": [ -118.381047, 33.959772 ] } },
{ "type": "Feature", "properties": { "name": "Rose Collective Pre-ICO", "address": "411 Rose Ave", "city": "Venice", "slug": "rose-collective", "state": "CA", "type": "dispensary", "url": "https:\/\/weedmaps.com\/dispensaries\/rose-collective", "x": -118.4745905, "y": 33.9979881, "zipcode": 90291, "registered": true, "registered_name": "VFARM 1509", "registered_address": "411 ROSE 90291-2629" }, "geometry": { "type": "Point", "coordinates": [ -118.4745905, 33.9979881 ] } },
{ "type": "Feature", "properties": { "name": "Rose Garden Collective", "address": "8225 South Broadway", "city": "Los Angeles", "slug": "rose-garden-collective", "state": "CA", "type": "dispensary", "url": "https:\/\/weedmaps.com\/dispensaries\/rose-garden-collective", "x": -118.278606, "y": 33.964668, "zipcode": 90003, "registered": false, "registered_name": null, "registered_address": null }, "geometry": { "type": "Point", "coordinates": [ -118.278606, 33.964668 ] } },
{ "type": "Feature", "properties": { "name": "Royal Greens", "address": "5067 West Washington Blvd.", "city": "Los Angeles", "slug": "royal-greens", "state": "CA", "type": "dispensary", "url": "https:\/\/weedmaps.com\/dispensaries\/royal-greens", "x": -118.35028, "y": 34.041136, "zipcode": 90016, "registered": true, "registered_name": "THE NATURAL WAY OF L A", "registered_address": "5067 WASHINGTON 90016-1450" }, "geometry": { "type": "Point", "coordinates": [ -118.35028, 34.041136 ] } },
{ "type": "Feature", "properties": { "name": "Royal Greens", "address": "1418 W Florence Ave", "city": "Los Angeles", "slug": "royal-greens-3", "state": "Ca", "type": "dispensary", "url": "https:\/\/weedmaps.com\/dispensaries\/royal-greens-3", "x": -118.301102, "y": 33.974454, "zipcode": 90047, "registered": false, "registered_name": null, "registered_address": null }, "geometry": { "type": "Point", "coordinates": [ -118.301102, 33.974454 ] } },
{ "type": "Feature", "properties": { "name": "SafeWay Trees - North Hollywood", "address": "6006 Vantage Avenue", "city": "North Hollywood", "slug": "safeway-trees", "state": "CA", "type": "dispensary", "url": "https:\/\/weedmaps.com\/dispensaries\/safeway-trees", "x": -118.397505, "y": 34.17973, "zipcode": 91606, "registered": false, "registered_name": null, "registered_address": null }, "geometry": { "type": "Point", "coordinates": [ -118.397505, 34.17973 ] } },
{ "type": "Feature", "properties": { "name": "Save Greens", "address": "11221 Venice Blvd", "city": "Los Angeles", "slug": "save-greens", "state": "CA", "type": "dispensary", "url": "https:\/\/weedmaps.com\/dispensaries\/save-greens", "x": -118.418316, "y": 34.013027, "zipcode": 90066, "registered": false, "registered_name": null, "registered_address": null }, "geometry": { "type": "Point", "coordinates": [ -118.418316, 34.013027 ] } },
{ "type": "Feature", "properties": { "name": "SCF", "address": "22865 Lockness Ave.", "city": "Torrance", "slug": "south-bay-collective", "state": "CA", "type": "dispensary", "url": "https:\/\/weedmaps.com\/dispensaries\/south-bay-collective", "x": -118.307436, "y": 33.81734, "zipcode": 90501, "registered": true, "registered_name": "SUNRISE CAREGIVER FOUNDATION INC", "registered_address": "22865 LOCKNESS 90501-5103" }, "geometry": { "type": "Point", "coordinates": [ -118.307436, 33.81734 ] } },
{ "type": "Feature", "properties": { "name": "SCG", "address": "13187 San Fernando Rd", "city": "Sylmar", "slug": "scg", "state": "California", "type": "dispensary", "url": "https:\/\/weedmaps.com\/dispensaries\/scg", "x": -118.47414, "y": 34.310285, "zipcode": 91342, "registered": false, "registered_name": null, "registered_address": null }, "geometry": { "type": "Point", "coordinates": [ -118.47414, 34.310285 ] } },
{ "type": "Feature", "properties": { "name": "Scooters", "address": "11318 S. Vermont Ave", "city": "Los Angeles", "slug": "skooters", "state": "CA", "type": "dispensary", "url": "https:\/\/weedmaps.com\/dispensaries\/skooters", "x": -118.29127, "y": 33.931863, "zipcode": 90044, "registered": false, "registered_name": null, "registered_address": null }, "geometry": { "type": "Point", "coordinates": [ -118.29127, 33.931863 ] } },
{ "type": "Feature", "properties": { "name": "Secret Gardens 20 Cap", "address": "4901 S. Western Ave", "city": "los angeles", "slug": "secret-gardens-20-cap-1", "state": "ca", "type": "dispensary", "url": "https:\/\/weedmaps.com\/dispensaries\/secret-gardens-20-cap-1", "x": -118.309167, "y": 33.998902, "zipcode": 90062, "registered": false, "registered_name": null, "registered_address": null }, "geometry": { "type": "Point", "coordinates": [ -118.309167, 33.998902 ] } },
{ "type": "Feature", "properties": { "name": "SEMILLA HRC", "address": "7648 Clybourn Ave.", "city": "Sun Valley", "slug": "herbal-relief-caregivers-inc", "state": "CA", "type": "dispensary", "url": "https:\/\/weedmaps.com\/dispensaries\/herbal-relief-caregivers-inc", "x": -118.363005, "y": 34.209269, "zipcode": 91352, "registered": true, "registered_name": "HERBAL RELIEF CAREGIVERS INC", "registered_address": "7648 CLYBOURN 91352-4622" }, "geometry": { "type": "Point", "coordinates": [ -118.363005, 34.209269 ] } },
{ "type": "Feature", "properties": { "name": "Sepulveda Caregivers", "address": "7234 Sepulveda Blvd", "city": "Van Nuys", "slug": "sepulveda-caregivers", "state": null, "type": "dispensary", "url": "https:\/\/weedmaps.com\/dispensaries\/sepulveda-caregivers", "x": -118.466003, "y": 34.202351, "zipcode": 91405, "registered": false, "registered_name": null, "registered_address": null }, "geometry": { "type": "Point", "coordinates": [ -118.466003, 34.202351 ] } },
{ "type": "Feature", "properties": { "name": "Sexy Buds", "address": "9735 Glenoaks Blvd", "city": "Sun Valley", "slug": "glenoaks-collective", "state": "CA", "type": "dispensary", "url": "https:\/\/weedmaps.com\/dispensaries\/glenoaks-collective", "x": -118.384516, "y": 34.246593, "zipcode": 91352, "registered": false, "registered_name": null, "registered_address": null }, "geometry": { "type": "Point", "coordinates": [ -118.384516, 34.246593 ] } },
{ "type": "Feature", "properties": { "name": "Sexy Nuggs Collective", "address": "1914 E Olympic Blvd", "city": "Los Angeles", "slug": "sexy-nuggs-collective", "state": "CA", "type": "dispensary", "url": "https:\/\/weedmaps.com\/dispensaries\/sexy-nuggs-collective", "x": -118.237391, "y": 34.026861, "zipcode": 90021, "registered": false, "registered_name": null, "registered_address": null }, "geometry": { "type": "Point", "coordinates": [ -118.237391, 34.026861 ] } },
{ "type": "Feature", "properties": { "name": "SFVPC", "address": "12527 San Fernando Road", "city": "Sylmar", "slug": "san-fernando-valley-patients-group", "state": "CA", "type": "dispensary", "url": "https:\/\/weedmaps.com\/dispensaries\/san-fernando-valley-patients-group", "x": -118.457868, "y": 34.297559, "zipcode": 91342, "registered": true, "registered_name": "SAN FERNANDO VALLEY PATIENTS' COOPERATIVE", "registered_address": "12527 SAN FERNANDO 91342-5023" }, "geometry": { "type": "Point", "coordinates": [ -118.457868, 34.297559 ] } },
{ "type": "Feature", "properties": { "name": "SHIVAS DTLA PRE-ICO", "address": "1339 South Hill Street", "city": "Los Angeles", "slug": "shivas-dtla", "state": "CA", "type": "dispensary", "url": "https:\/\/weedmaps.com\/dispensaries\/shivas-dtla", "x": -118.263011, "y": 34.036765, "zipcode": 90015, "registered": false, "registered_name": null, "registered_address": null }, "geometry": { "type": "Point", "coordinates": [ -118.263011, 34.036765 ] } },
{ "type": "Feature", "properties": { "name": "SKY HIGH HOLISTIC NOHO", "address": "6102 Vineland Ave.", "city": "North Hollywood", "slug": "sky-high-holistic-hollywood", "state": "CA", "type": "dispensary", "url": "https:\/\/weedmaps.com\/dispensaries\/sky-high-holistic-hollywood", "x": -118.370136, "y": 34.181421, "zipcode": 91606, "registered": false, "registered_name": null, "registered_address": null }, "geometry": { "type": "Point", "coordinates": [ -118.370136, 34.181421 ] } },
{ "type": "Feature", "properties": { "name": "Slauson Medical Collective", "address": "1645 Slauson Ave", "city": "Los Angeles", "slug": "slauson-medical-collective", "state": "California", "type": "dispensary", "url": "https:\/\/weedmaps.com\/dispensaries\/slauson-medical-collective", "x": -118.244036, "y": 33.989807, "zipcode": 90011, "registered": false, "registered_name": null, "registered_address": null }, "geometry": { "type": "Point", "coordinates": [ -118.244036, 33.989807 ] } },
{ "type": "Feature", "properties": { "name": "Smart Collective", "address": "10745 RIVERSIDE DR SUITE A", "city": "NORTH HOLLYWOOD", "slug": "smartcollective-2", "state": "CA", "type": "dispensary", "url": "https:\/\/weedmaps.com\/dispensaries\/smartcollective-2", "x": -118.365146, "y": 34.152411, "zipcode": 91602, "registered": true, "registered_name": "SMART COLLECTIVE INC", "registered_address": "10745 RIVERSIDE 91602-2371" }, "geometry": { "type": "Point", "coordinates": [ -118.365146, 34.152411 ] } },
{ "type": "Feature", "properties": { "name": "Smartweed", "address": "1040 North Western Ave.", "city": "Los Angeles", "slug": "smartweed", "state": "CA", "type": "dispensary", "url": "https:\/\/weedmaps.com\/dispensaries\/smartweed", "x": -118.308888, "y": 34.08956, "zipcode": 90029, "registered": true, "registered_name": "VALLEY HOLISTIC CAREGIVERS INC", "registered_address": "1038 WESTERN 90029-2310" }, "geometry": { "type": "Point", "coordinates": [ -118.308888, 34.08956 ] } },
{ "type": "Feature", "properties": { "name": "SO CAL PRIVATE RESERVE", "address": "6061 S Vermont Ave", "city": "Los Angeles", "slug": "so-cal-private-reserve", "state": "CA", "type": "dispensary", "url": "https:\/\/weedmaps.com\/dispensaries\/so-cal-private-reserve", "x": -118.291631, "y": 33.984571, "zipcode": 90044, "registered": false, "registered_name": null, "registered_address": null }, "geometry": { "type": "Point", "coordinates": [ -118.291631, 33.984571 ] } },
{ "type": "Feature", "properties": { "name": "So-Cal Co-op", "address": "6322 Fallbrook Ave.", "city": "Woodland Hills", "slug": "so-cal-co-op-2", "state": "CA", "type": "dispensary", "url": "https:\/\/weedmaps.com\/dispensaries\/so-cal-co-op-2", "x": -118.622936, "y": 34.185259, "zipcode": 91367, "registered": true, "registered_name": "SO CAL CO-OP, INC", "registered_address": "6322 FALLBROOK 91367-1603" }, "geometry": { "type": "Point", "coordinates": [ -118.622936, 34.185259 ] } },
{ "type": "Feature", "properties": { "name": "SOCC PRE-ICO", "address": "5740 Lankershim Blvd", "city": "Los Angeles", "slug": "sherman-oaks-collective-care-2", "state": "California", "type": "dispensary", "url": "https:\/\/weedmaps.com\/dispensaries\/sherman-oaks-collective-care-2", "x": -118.380492, "y": 34.175075, "zipcode": 91601, "registered": false, "registered_name": null, "registered_address": null }, "geometry": { "type": "Point", "coordinates": [ -118.380492, 34.175075 ] } },
{ "type": "Feature", "properties": { "name": "Stash Studio City", "address": "12433 Ventura Blvd", "city": "Studio City", "slug": "420-for-the-people", "state": "California", "type": "dispensary", "url": "https:\/\/weedmaps.com\/dispensaries\/420-for-the-people", "x": -118.404153, "y": 34.143057, "zipcode": 91604, "registered": false, "registered_name": null, "registered_address": null }, "geometry": { "type": "Point", "coordinates": [ -118.404153, 34.143057 ] } },
{ "type": "Feature", "properties": { "name": "Stone Age Farmacy LA - Recreational", "address": "621 W. Rosecrans Ave Suite #101", "city": "Gardena", "slug": "the-stone-age-pharmacy", "state": "CA", "type": "dispensary", "url": "https:\/\/weedmaps.com\/dispensaries\/the-stone-age-pharmacy", "x": -118.2856391, "y": 33.9028761, "zipcode": 90248, "registered": true, "registered_name": "THERAPEUTIC HEALTH COLLECTIVE INC", "registered_address": "621 ROSECRANS 90248-1516" }, "geometry": { "type": "Point", "coordinates": [ -118.285639099999983, 33.9028761 ] } },
{ "type": "Feature", "properties": { "name": "STR8 UP Collective", "address": "1100 East 14th Place", "city": "Los Angeles", "slug": "whittier-20-cap-collective", "state": "CA", "type": "dispensary", "url": "https:\/\/weedmaps.com\/dispensaries\/whittier-20-cap-collective", "x": -118.249581, "y": 34.028352, "zipcode": 90021, "registered": false, "registered_name": null, "registered_address": null }, "geometry": { "type": "Point", "coordinates": [ -118.249581, 34.028352 ] } },
{ "type": "Feature", "properties": { "name": "Straight Gas 20 Cap", "address": "119 West Anaheim Street, Unit 6", "city": "Wilmington", "slug": "straight-gas-20-cap", "state": "California", "type": "dispensary", "url": "https:\/\/weedmaps.com\/dispensaries\/straight-gas-20-cap", "x": -118.263408, "y": 33.78016, "zipcode": 90744, "registered": false, "registered_name": null, "registered_address": null }, "geometry": { "type": "Point", "coordinates": [ -118.263408, 33.78016 ] } },
{ "type": "Feature", "properties": { "name": "Strain Balboa Caregivers - Adult Use", "address": "21627 Devonshire st.", "city": "Chatsworth", "slug": "strain-30-cap-selective", "state": "CA", "type": "dispensary", "url": "https:\/\/weedmaps.com\/dispensaries\/strain-30-cap-selective", "x": -118.6013195, "y": 34.2574809, "zipcode": 91311, "registered": true, "registered_name": "STRAIN BALBOA CAREGIVERS INC", "registered_address": "21627 DEVONSHIRE 91311-2902" }, "geometry": { "type": "Point", "coordinates": [ -118.6013195, 34.2574809 ] } },
{ "type": "Feature", "properties": { "name": "Sun Valley Caregivers", "address": "11000 Randall St. #E", "city": "Sun Valley", "slug": "svc-home-of-the-louie-xiii", "state": "CA", "type": "dispensary", "url": "https:\/\/weedmaps.com\/dispensaries\/svc-home-of-the-louie-xiii", "x": -118.370245, "y": 34.237405, "zipcode": 91352, "registered": true, "registered_name": "SUN VALLEY CAREGIVERS INC", "registered_address": "11000 RANDALL 91352-2649" }, "geometry": { "type": "Point", "coordinates": [ -118.370245, 34.237405 ] } },
{ "type": "Feature", "properties": { "name": "SUNSET HERBAL", "address": "11503 Burbank Blvd", "city": "North Hollywood", "slug": "sunset-herbal-corner-2-2", "state": "CA", "type": "dispensary", "url": "https:\/\/weedmaps.com\/dispensaries\/sunset-herbal-corner-2-2", "x": -118.38277, "y": 34.172486, "zipcode": 91601, "registered": true, "registered_name": "SUNSET HERBAL CORNER INC", "registered_address": "11503 BURBANK 91601-2309" }, "geometry": { "type": "Point", "coordinates": [ -118.38277, 34.172486 ] } },
{ "type": "Feature", "properties": { "name": "Supa Nova Canoga", "address": "21500 Sherman Way", "city": "Canoga", "slug": "supa-nova-canoga", "state": "CA", "type": "dispensary", "url": "https:\/\/weedmaps.com\/dispensaries\/supa-nova-canoga", "x": -118.59917, "y": 34.200792, "zipcode": 91303, "registered": false, "registered_name": null, "registered_address": null }, "geometry": { "type": "Point", "coordinates": [ -118.59917, 34.200792 ] } },
{ "type": "Feature", "properties": { "name": "Super Supreme", "address": "3350 W. 8th Street", "city": "Los Angeles", "slug": "7solstice-collective", "state": "California", "type": "dispensary", "url": "https:\/\/weedmaps.com\/dispensaries\/7solstice-collective", "x": -118.301898, "y": 34.057475, "zipcode": 90005, "registered": false, "registered_name": null, "registered_address": null }, "geometry": { "type": "Point", "coordinates": [ -118.301898, 34.057475 ] } },
{ "type": "Feature", "properties": { "name": "Sweet Flower - Melrose", "address": "8163 Melrose Avenue", "city": "Los Angeles", "slug": "sweet-flower-melrose", "state": "California", "type": "dispensary", "url": "https:\/\/weedmaps.com\/dispensaries\/sweet-flower-melrose", "x": -118.367402, "y": 34.083988, "zipcode": 90046, "registered": false, "registered_name": null, "registered_address": null }, "geometry": { "type": "Point", "coordinates": [ -118.367402, 34.083988 ] } },
{ "type": "Feature", "properties": { "name": "Sweet Flower - Studio City", "address": "11705 Ventura Blvd.", "city": "Studio City", "slug": "perennial-holistic", "state": "CA", "type": "dispensary", "url": "https:\/\/weedmaps.com\/dispensaries\/perennial-holistic", "x": -118.3878578, "y": 34.1413384, "zipcode": 91604, "registered": true, "registered_name": "PERENNIAL HOLISTIC WELLNESS CENTER INC", "registered_address": "11705 VENTURA 91604-2616" }, "geometry": { "type": "Point", "coordinates": [ -118.3878578, 34.1413384 ] } },
{ "type": "Feature", "properties": { "name": "SYLMAR CANNA CORNER", "address": "13095 San Fernando Rd", "city": "Sylmar", "slug": "sylmar-wellness-grand-opening", "state": "CA", "type": "dispensary", "url": "https:\/\/weedmaps.com\/dispensaries\/sylmar-wellness-grand-opening", "x": -118.471774, "y": 34.30799, "zipcode": 91342, "registered": false, "registered_name": null, "registered_address": null }, "geometry": { "type": "Point", "coordinates": [ -118.471774, 34.30799 ] } },
{ "type": "Feature", "properties": { "name": "TCC", "address": "1555 W Sepulveda Blvd, Suite J", "city": "Torrance", "slug": "tcc-3", "state": "CA", "type": "dispensary", "url": "https:\/\/weedmaps.com\/dispensaries\/tcc-3", "x": -118.304897, "y": 33.816182, "zipcode": 90501, "registered": false, "registered_name": null, "registered_address": null }, "geometry": { "type": "Point", "coordinates": [ -118.304897, 33.816182 ] } },
{ "type": "Feature", "properties": { "name": "The 15 Spot", "address": "15050 Oxnard St.", "city": "Van Nuys", "slug": "the-15-spot", "state": "California", "type": "dispensary", "url": "https:\/\/weedmaps.com\/dispensaries\/the-15-spot", "x": -118.461304, "y": 34.179086, "zipcode": 91411, "registered": false, "registered_name": null, "registered_address": null }, "geometry": { "type": "Point", "coordinates": [ -118.461304, 34.179086 ] } },
{ "type": "Feature", "properties": { "name": "The 20 Spot", "address": "6329 Van Nuys Blvd", "city": "Van Nuys", "slug": "the-20-spot", "state": "Ca", "type": "dispensary", "url": "https:\/\/weedmaps.com\/dispensaries\/the-20-spot", "x": -118.449011, "y": 34.185616, "zipcode": 91401, "registered": false, "registered_name": null, "registered_address": null }, "geometry": { "type": "Point", "coordinates": [ -118.449011, 34.185616 ] } },
{ "type": "Feature", "properties": { "name": "The 710 Club - OPEN 24 Hours!", "address": "16418 S. Vermont Ave", "city": "Gardena", "slug": "the-710-club-south-bay", "state": "CA", "type": "dispensary", "url": "https:\/\/weedmaps.com\/dispensaries\/the-710-club-south-bay", "x": -118.291129, "y": 33.881973, "zipcode": 90247, "registered": false, "registered_name": null, "registered_address": null }, "geometry": { "type": "Point", "coordinates": [ -118.291129, 33.881973 ] } },
{ "type": "Feature", "properties": { "name": "The Bogo House", "address": "1511 Esperanza St", "city": "Los Angeles", "slug": "ela-space-buds", "state": null, "type": "dispensary", "url": "https:\/\/weedmaps.com\/dispensaries\/ela-space-buds", "x": -118.201255, "y": 34.015549, "zipcode": 90023, "registered": false, "registered_name": null, "registered_address": null }, "geometry": { "type": "Point", "coordinates": [ -118.201255, 34.015549 ] } },
{ "type": "Feature", "properties": { "name": "The Farmacy Westwood", "address": "1035 Gayley Ave", "city": "Los Angeles", "slug": "sunnyside-care-collective", "state": "CA", "type": "dispensary", "url": "https:\/\/weedmaps.com\/dispensaries\/sunnyside-care-collective", "x": -118.447467, "y": 34.061137, "zipcode": 90024, "registered": true, "registered_name": "WFARM1045 INC", "registered_address": "1035 GAYLEY 90024-3401" }, "geometry": { "type": "Point", "coordinates": [ -118.447467, 34.061137 ] } },
{ "type": "Feature", "properties": { "name": "The Fav", "address": "10718 Riverside Drive", "city": "North Hollywood", "slug": "the-fav", "state": "CA", "type": "dispensary", "url": "https:\/\/weedmaps.com\/dispensaries\/the-fav", "x": -118.364387, "y": 34.152041, "zipcode": 91602, "registered": false, "registered_name": null, "registered_address": null }, "geometry": { "type": "Point", "coordinates": [ -118.364387, 34.152041 ] } },
{ "type": "Feature", "properties": { "name": "The Green Easy", "address": "8311 Beverly Blvd", "city": "Los Angeles", "slug": "tge", "state": "CA", "type": "dispensary", "url": "https:\/\/weedmaps.com\/dispensaries\/tge", "x": -118.370479, "y": 34.076304, "zipcode": 90048, "registered": true, "registered_name": "THE VAN NUYS GROUP", "registered_address": "8311 BEVERLY 90048-2607" }, "geometry": { "type": "Point", "coordinates": [ -118.370479, 34.076304 ] } },
{ "type": "Feature", "properties": { "name": "The Green Rose", "address": "4569 Melrose Ave", "city": "Hollywood", "slug": "the-green-rose", "state": "CA", "type": "dispensary", "url": "https:\/\/weedmaps.com\/dispensaries\/the-green-rose", "x": -118.3, "y": 34.083868, "zipcode": 90029, "registered": false, "registered_name": null, "registered_address": null }, "geometry": { "type": "Point", "coordinates": [ -118.3, 34.083868 ] } },
{ "type": "Feature", "properties": { "name": "THE HEALING TOUCH", "address": "18013 Ventura Blvd unit A", "city": "Encino", "slug": "tht", "state": "CA", "type": "dispensary", "url": "https:\/\/weedmaps.com\/dispensaries\/tht", "x": -118.525072, "y": 34.16488, "zipcode": 91316, "registered": true, "registered_name": "WELCOME THE HEALING TOUCH INC", "registered_address": "18013 VENTURA 91316-3517" }, "geometry": { "type": "Point", "coordinates": [ -118.525072, 34.16488 ] } },
{ "type": "Feature", "properties": { "name": "The Herb Shack", "address": "11224 Burbank Boulevard", "city": "North Hollywood", "slug": "the-herb-shack", "state": "CA", "type": "dispensary", "url": "https:\/\/weedmaps.com\/dispensaries\/the-herb-shack", "x": -118.376225, "y": 34.172136, "zipcode": 91601, "registered": false, "registered_name": null, "registered_address": null }, "geometry": { "type": "Point", "coordinates": [ -118.376225, 34.172136 ] } },
{ "type": "Feature", "properties": { "name": "The High Note East", "address": "5359 Valley Blvd", "city": "Los Angeles", "slug": "highnoteeast", "state": "CA", "type": "dispensary", "url": "https:\/\/weedmaps.com\/dispensaries\/highnoteeast", "x": -118.166772, "y": 34.074718, "zipcode": 90032, "registered": true, "registered_name": "GREEN AID RECOVERY GROUP INC", "registered_address": "5359 VALLEY 90032-3930" }, "geometry": { "type": "Point", "coordinates": [ -118.166772, 34.074718 ] } },
{ "type": "Feature", "properties": { "name": "The High Note West", "address": "5277 West Jefferson Blvd", "city": "Los Angeles", "slug": "highnotewest", "state": "CA", "type": "dispensary", "url": "https:\/\/weedmaps.com\/dispensaries\/highnotewest", "x": -118.360725, "y": 34.025836, "zipcode": 90016, "registered": true, "registered_name": "COLLECTIVE PHARM", "registered_address": "5277 JEFFERSON 90016-3841" }, "geometry": { "type": "Point", "coordinates": [ -118.360725, 34.025836 ] } },
{ "type": "Feature", "properties": { "name": "The Higher Path", "address": "14080 Ventura Blvd", "city": "Sherman Oaks", "slug": "the-higher-path-sherman-oaks", "state": "California", "type": "dispensary", "url": "https:\/\/weedmaps.com\/dispensaries\/the-higher-path-sherman-oaks", "x": -118.4398272, "y": 34.1493088, "zipcode": 91423, "registered": true, "registered_name": "THE HIGHER PATH PATIENT ASSOCIATION", "registered_address": "14080 VENTURA 91423-3542" }, "geometry": { "type": "Point", "coordinates": [ -118.439827200000011, 34.1493088 ] } },
{ "type": "Feature", "properties": { "name": "The Kind Center, Inc.", "address": "1944 N Cahuenga Blvd", "city": "Hollywood", "slug": "the-kind-center-inc", "state": "California", "type": "dispensary", "url": "https:\/\/weedmaps.com\/dispensaries\/the-kind-center-inc", "x": -118.330486, "y": 34.10657, "zipcode": 90068, "registered": true, "registered_name": "KB COLLECTIVE FOR COMPASSION AND CARE INC", "registered_address": "1944 CAHUENGA 90068-3853" }, "geometry": { "type": "Point", "coordinates": [ -118.330486, 34.10657 ] } },
{ "type": "Feature", "properties": { "name": "The Originals Factory & Weed Shop", "address": "6500 Stanford Ave", "city": "Los Angeles", "slug": "the-originals-factory-weed-shop", "state": "CA", "type": "dispensary", "url": "https:\/\/weedmaps.com\/dispensaries\/the-originals-factory-weed-shop", "x": -118.262644, "y": 33.981015, "zipcode": 90001, "registered": true, "registered_name": "KUSH VALLEY COLLECTIVE", "registered_address": "6500 STANFORD 90001-1536" }, "geometry": { "type": "Point", "coordinates": [ -118.262644, 33.981015 ] } },
{ "type": "Feature", "properties": { "name": "The Plant", "address": "21759 Erwin St", "city": "Woodland Hills", "slug": "the-plant", "state": "California", "type": "dispensary", "url": "https:\/\/weedmaps.com\/dispensaries\/the-plant", "x": -118.60294, "y": 34.183078, "zipcode": 91367, "registered": true, "registered_name": "HIGHLAND PARK PATIENT COLLECTIVE INC", "registered_address": "21759 ERWIN 91367-3608" }, "geometry": { "type": "Point", "coordinates": [ -118.60294, 34.183078 ] } },
{ "type": "Feature", "properties": { "name": "The Plug 20 Cap Collective", "address": "2138 W Florence Ave", "city": "Los Angeles", "slug": "plug-20-cap-collective", "state": "CA", "type": "dispensary", "url": "https:\/\/weedmaps.com\/dispensaries\/plug-20-cap-collective", "x": -118.316794, "y": 33.974321, "zipcode": 90047, "registered": false, "registered_name": null, "registered_address": null }, "geometry": { "type": "Point", "coordinates": [ -118.316794, 33.974321 ] } },
{ "type": "Feature", "properties": { "name": "The Pottery - Medical", "address": "5042 Venice Blvd", "city": "Los Angeles", "slug": "the-pottery-2", "state": "CA", "type": "dispensary", "url": "https:\/\/weedmaps.com\/dispensaries\/the-pottery-2", "x": -118.348584, "y": 34.04513, "zipcode": 90019, "registered": true, "registered_name": "TIMOTHY LEARY MEMORIAL DISPENSARY COLLECTIVE", "registered_address": "5042 VENICE 90019-5310" }, "geometry": { "type": "Point", "coordinates": [ -118.348584, 34.04513 ] } },
{ "type": "Feature", "properties": { "name": "The Pottery - Recreational", "address": "5042 Venice Blvd", "city": "Los Angeles", "slug": "the-pottery", "state": "Ca", "type": "dispensary", "url": "https:\/\/weedmaps.com\/dispensaries\/the-pottery", "x": -118.348584, "y": 34.04513, "zipcode": 90019, "registered": true, "registered_name": "TIMOTHY LEARY MEMORIAL DISPENSARY COLLECTIVE", "registered_address": "5042 VENICE 90019-5310" }, "geometry": { "type": "Point", "coordinates": [ -118.348584, 34.04513 ] } },
{ "type": "Feature", "properties": { "name": "THE PRESIDENTIAL COLLECTIVE", "address": "8111 S Western", "city": "Los Angeles", "slug": "anaheim-healing-30-cap", "state": "CA", "type": "dispensary", "url": "https:\/\/weedmaps.com\/dispensaries\/anaheim-healing-30-cap", "x": -118.309234, "y": 33.96511, "zipcode": 90047, "registered": false, "registered_name": null, "registered_address": null }, "geometry": { "type": "Point", "coordinates": [ -118.309234, 33.96511 ] } },
{ "type": "Feature", "properties": { "name": "The Reefinery - Adult Use", "address": "14901 Oxnard Street", "city": "Van Nuys", "slug": "sherman-oaks-health-center", "state": "CA", "type": "dispensary", "url": "https:\/\/weedmaps.com\/dispensaries\/sherman-oaks-health-center", "x": -118.457681, "y": 34.179607, "zipcode": 91411, "registered": true, "registered_name": "CAHUENGA CAREGIVERS INC", "registered_address": "14901 OXNARD 91411-2611" }, "geometry": { "type": "Point", "coordinates": [ -118.457681, 34.179607 ] } },
{ "type": "Feature", "properties": { "name": "The Reefinery - Medical", "address": "14901 Oxnard Street", "city": "Van Nuys", "slug": "the-reefinery", "state": "CA", "type": "dispensary", "url": "https:\/\/weedmaps.com\/dispensaries\/the-reefinery", "x": -118.457681, "y": 34.179607, "zipcode": 91411, "registered": true, "registered_name": "CAHUENGA CAREGIVERS INC", "registered_address": "14901 OXNARD 91411-2611" }, "geometry": { "type": "Point", "coordinates": [ -118.457681, 34.179607 ] } },
{ "type": "Feature", "properties": { "name": "The Relief Collective", "address": "5818 West Pico Blvd.", "city": "Midtown", "slug": "the-relief-collective", "state": "CA", "type": "dispensary", "url": "https:\/\/weedmaps.com\/dispensaries\/the-relief-collective", "x": -118.365329, "y": 34.051079, "zipcode": 90019, "registered": true, "registered_name": "THE RELIEF COLLECTIVE INC", "registered_address": "5816 PICO 90019-3713" }, "geometry": { "type": "Point", "coordinates": [ -118.365329, 34.051079 ] } },
{ "type": "Feature", "properties": { "name": "The Shop WH", "address": "5338 Alhama Dr.", "city": "Woodland Hills", "slug": "the-loft-co-op", "state": "CA", "type": "dispensary", "url": "https:\/\/weedmaps.com\/dispensaries\/the-loft-co-op", "x": -118.592936, "y": 34.166414, "zipcode": 91364, "registered": true, "registered_name": "AFTER CARE COLLECTIVE", "registered_address": "5338 ALHAMA 91364-2101" }, "geometry": { "type": "Point", "coordinates": [ -118.592936, 34.166414 ] } },
{ "type": "Feature", "properties": { "name": "The Smoke Shop", "address": "7143 Owensmouth Ave", "city": "Canoga Park", "slug": "the-smoke-shop-1", "state": "CA", "type": "dispensary", "url": "https:\/\/weedmaps.com\/dispensaries\/the-smoke-shop-1", "x": -118.601775, "y": 34.200434, "zipcode": 91303, "registered": false, "registered_name": null, "registered_address": null }, "geometry": { "type": "Point", "coordinates": [ -118.601775, 34.200434 ] } },
{ "type": "Feature", "properties": { "name": "The W 25CAP of Wilmington", "address": "1302 North Wilmington Blvd", "city": "Wilmington", "slug": "the-w-collective", "state": "CA", "type": "dispensary", "url": "https:\/\/weedmaps.com\/dispensaries\/the-w-collective", "x": -118.274743, "y": 33.788653, "zipcode": 90744, "registered": false, "registered_name": null, "registered_address": null }, "geometry": { "type": "Point", "coordinates": [ -118.274743, 33.788653 ] } },
{ "type": "Feature", "properties": { "name": "Three Kings", "address": "4359 Avalon Boulevard", "city": "Los Angeles", "slug": "three-kings-1", "state": "Ca", "type": "dispensary", "url": "https:\/\/weedmaps.com\/dispensaries\/three-kings-1", "x": -118.265544, "y": 34.004493, "zipcode": 90011, "registered": false, "registered_name": null, "registered_address": null }, "geometry": { "type": "Point", "coordinates": [ -118.265544, 34.004493 ] } },
{ "type": "Feature", "properties": { "name": "TLC", "address": "3650 E. Olympic Blvd (4th Floor)", "city": "Los Angeles", "slug": "tlc-2-2", "state": "CA", "type": "dispensary", "url": "https:\/\/weedmaps.com\/dispensaries\/tlc-2-2", "x": -118.198549, "y": 34.018206, "zipcode": 90023, "registered": true, "registered_name": "TLC, INC", "registered_address": "3650 OLYMPIC 90023-3129" }, "geometry": { "type": "Point", "coordinates": [ -118.198549, 34.018206 ] } },
{ "type": "Feature", "properties": { "name": "TNT Green", "address": "7520 Foothill Blvd", "city": "Tujunga", "slug": "tnt-green", "state": "CA", "type": "dispensary", "url": "https:\/\/weedmaps.com\/dispensaries\/tnt-green", "x": -118.296504, "y": 34.253362, "zipcode": 91042, "registered": false, "registered_name": null, "registered_address": null }, "geometry": { "type": "Point", "coordinates": [ -118.296504, 34.253362 ] } },
{ "type": "Feature", "properties": { "name": "Torrance Healing Church", "address": "1321 W Carson St", "city": "Torrance", "slug": "torrance-gold", "state": "CA", "type": "dispensary", "url": "https:\/\/weedmaps.com\/dispensaries\/torrance-gold", "x": -118.300463, "y": 33.831797, "zipcode": 90501, "registered": false, "registered_name": null, "registered_address": null }, "geometry": { "type": "Point", "coordinates": [ -118.300463, 33.831797 ] } },
{ "type": "Feature", "properties": { "name": "Trapacanna Collective", "address": "728 E. Florence Ave", "city": "Los Angeles", "slug": "trapacanna-collective-2", "state": "California", "type": "dispensary", "url": "https:\/\/weedmaps.com\/dispensaries\/trapacanna-collective-2", "x": -118.262235, "y": 33.974401, "zipcode": 90001, "registered": false, "registered_name": null, "registered_address": null }, "geometry": { "type": "Point", "coordinates": [ -118.262235, 33.974401 ] } },
{ "type": "Feature", "properties": { "name": "TREETOP LA", "address": "138 N San Fernando Rd", "city": "Los Angeles", "slug": "treetop-la", "state": "CA", "type": "dispensary", "url": "https:\/\/weedmaps.com\/dispensaries\/treetop-la", "x": -118.221583, "y": 34.075423, "zipcode": 90031, "registered": false, "registered_name": null, "registered_address": null }, "geometry": { "type": "Point", "coordinates": [ -118.221583, 34.075423 ] } },
{ "type": "Feature", "properties": { "name": "Tri Star Organics", "address": "11123 Burbank Blvd", "city": "North Hollywood", "slug": "ccc-3", "state": "California", "type": "dispensary", "url": "https:\/\/weedmaps.com\/dispensaries\/ccc-3", "x": -118.373309, "y": 34.17229, "zipcode": 91601, "registered": false, "registered_name": null, "registered_address": null }, "geometry": { "type": "Point", "coordinates": [ -118.373309, 34.17229 ] } },
{ "type": "Feature", "properties": { "name": "Trichome Research Group (TRG)", "address": "10401 S Avalon Blvd", "city": "Los Angeles", "slug": "trg", "state": "CA", "type": "dispensary", "url": "https:\/\/weedmaps.com\/dispensaries\/trg", "x": -118.265507, "y": 33.941773, "zipcode": 90003, "registered": false, "registered_name": null, "registered_address": null }, "geometry": { "type": "Point", "coordinates": [ -118.265507, 33.941773 ] } },
{ "type": "Feature", "properties": { "name": "True 20", "address": "5501 S Broadway", "city": "Los Angeles", "slug": "stoners-heaven-25-cap", "state": "CA", "type": "dispensary", "url": "https:\/\/weedmaps.com\/dispensaries\/stoners-heaven-25-cap", "x": -118.278609, "y": 33.99226, "zipcode": 90037, "registered": false, "registered_name": null, "registered_address": null }, "geometry": { "type": "Point", "coordinates": [ -118.278609, 33.99226 ] } },
{ "type": "Feature", "properties": { "name": "Unified Patient Alliance", "address": "8416 Lankershim Bl. #107", "city": "Sun Valley", "slug": "unified-patient-alliance", "state": "CA", "type": "dispensary", "url": "https:\/\/weedmaps.com\/dispensaries\/unified-patient-alliance", "x": -118.387437, "y": 34.223115, "zipcode": 91352, "registered": false, "registered_name": null, "registered_address": null }, "geometry": { "type": "Point", "coordinates": [ -118.387437, 34.223115 ] } },
{ "type": "Feature", "properties": { "name": "Universal Collective - Adult Use", "address": "3625 CAHUENGA BLVD W", "city": "LOS ANGELES", "slug": "studio-city-caregivers-studio-city", "state": "CA", "type": "dispensary", "url": "https:\/\/weedmaps.com\/dispensaries\/studio-city-caregivers-studio-city", "x": -118.360261, "y": 34.1343953, "zipcode": 90068, "registered": true, "registered_name": "STUDIO CITY CAREGIVERS CO-OP INC", "registered_address": "3625 CAHUENGA 90068-1205" }, "geometry": { "type": "Point", "coordinates": [ -118.360261, 34.1343953 ] } },
{ "type": "Feature", "properties": { "name": "University 20 CAP", "address": "253 West Jefferson Blvd", "city": "Los Angeles", "slug": "jefferson-20-cap", "state": "CA", "type": "dispensary", "url": "https:\/\/weedmaps.com\/dispensaries\/jefferson-20-cap", "x": -118.275478, "y": 34.020447, "zipcode": 90007, "registered": false, "registered_name": null, "registered_address": null }, "geometry": { "type": "Point", "coordinates": [ -118.275478, 34.020447 ] } },
{ "type": "Feature", "properties": { "name": "Urban Treez - Adult Use", "address": "11376 Ventura Blvd", "city": "Studio City", "slug": "bhang-society-2-5", "state": "CA", "type": "dispensary", "url": "https:\/\/weedmaps.com\/dispensaries\/bhang-society-2-5", "x": -118.378285, "y": 34.139913, "zipcode": 91604, "registered": true, "registered_name": "HERBAL SOLUTIONS PRE ICO LLC", "registered_address": "11376 VENTURA 91604-3139" }, "geometry": { "type": "Point", "coordinates": [ -118.378285, 34.139913 ] } },
{ "type": "Feature", "properties": { "name": "Urbland Park", "address": "5324 York Blvd", "city": "Los Angeles", "slug": "urbland-park", "state": "California", "type": "dispensary", "url": "https:\/\/weedmaps.com\/dispensaries\/urbland-park", "x": -118.19947, "y": 34.119792, "zipcode": 90042, "registered": false, "registered_name": null, "registered_address": null }, "geometry": { "type": "Point", "coordinates": [ -118.19947, 34.119792 ] } },
{ "type": "Feature", "properties": { "name": "US Dank", "address": "8242 Louise Ave", "city": "Northridge", "slug": "us-dank", "state": null, "type": "dispensary", "url": "https:\/\/weedmaps.com\/dispensaries\/us-dank", "x": -118.509639, "y": 34.220396, "zipcode": 91325, "registered": false, "registered_name": null, "registered_address": null }, "geometry": { "type": "Point", "coordinates": [ -118.509639, 34.220396 ] } },
{ "type": "Feature", "properties": { "name": "UVC - Downtown LA", "address": "221 W 4th St", "city": "Los Angeles", "slug": "uvc-2", "state": "CA", "type": "dispensary", "url": "https:\/\/weedmaps.com\/dispensaries\/uvc-2", "x": -118.248907, "y": 34.049344, "zipcode": 90013, "registered": false, "registered_name": null, "registered_address": null }, "geometry": { "type": "Point", "coordinates": [ -118.248907, 34.049344 ] } },
{ "type": "Feature", "properties": { "name": "Valley Herbal Center", "address": "14522 Victory Blvd", "city": "Van Nuys", "slug": "vhc-van-nuys", "state": "CA", "type": "dispensary", "url": "https:\/\/weedmaps.com\/dispensaries\/vhc-van-nuys", "x": -118.449643, "y": 34.186467, "zipcode": 91405, "registered": true, "registered_name": "VALLEY HERBAL CENTER INC", "registered_address": "14522 VICTORY 91411-1618" }, "geometry": { "type": "Point", "coordinates": [ -118.449643, 34.186467 ] } },
{ "type": "Feature", "properties": { "name": "Van Nuys Medical Alliance", "address": "7826 Balboa Blvd", "city": "Van Nuys", "slug": "van-nuys-medical-alliance", "state": "CA", "type": "dispensary", "url": "https:\/\/weedmaps.com\/dispensaries\/van-nuys-medical-alliance", "x": -118.500787, "y": 34.212951, "zipcode": 91406, "registered": false, "registered_name": null, "registered_address": null }, "geometry": { "type": "Point", "coordinates": [ -118.500787, 34.212951 ] } },
{ "type": "Feature", "properties": { "name": "Venice Medical Center", "address": "9636 Venice Blvd", "city": "Culver City", "slug": "culver-medical-center", "state": "CA", "type": "dispensary", "url": "https:\/\/weedmaps.com\/dispensaries\/culver-medical-center", "x": -118.396509, "y": 34.024321, "zipcode": 90232, "registered": false, "registered_name": null, "registered_address": null }, "geometry": { "type": "Point", "coordinates": [ -118.396509, 34.024321 ] } },
{ "type": "Feature", "properties": { "name": "Venice Royals", "address": "12581 venice blvd", "city": "Los Angeles", "slug": "venice-royals", "state": "California", "type": "dispensary", "url": "https:\/\/weedmaps.com\/dispensaries\/venice-royals", "x": -118.436334, "y": 34.002694, "zipcode": 90066, "registered": false, "registered_name": null, "registered_address": null }, "geometry": { "type": "Point", "coordinates": [ -118.436334, 34.002694 ] } },
{ "type": "Feature", "properties": { "name": "Venice Serenity Gardens", "address": "10717 Venice Blvd", "city": "Los Angeles", "slug": "venice-serenity-gardens-1", "state": "CA", "type": "dispensary", "url": "https:\/\/weedmaps.com\/dispensaries\/venice-serenity-gardens-1", "x": -118.407696, "y": 34.018826, "zipcode": 90034, "registered": false, "registered_name": null, "registered_address": null }, "geometry": { "type": "Point", "coordinates": [ -118.407696, 34.018826 ] } },
{ "type": "Feature", "properties": { "name": "Vermont 30 Cap", "address": "8918 S Vermont Ave", "city": "Los Angeles", "slug": "vermont-30-cap", "state": "California", "type": "dispensary", "url": "https:\/\/weedmaps.com\/dispensaries\/vermont-30-cap", "x": -118.29127, "y": 33.955963, "zipcode": 90044, "registered": false, "registered_name": null, "registered_address": null }, "geometry": { "type": "Point", "coordinates": [ -118.29127, 33.955963 ] } },
{ "type": "Feature", "properties": { "name": "Via Verde Collective", "address": "1600 S Main St", "city": "Los Angeles", "slug": "mk-wellness", "state": "Ca", "type": "dispensary", "url": "https:\/\/weedmaps.com\/dispensaries\/mk-wellness", "x": -118.262368, "y": 34.033284, "zipcode": 90015, "registered": false, "registered_name": null, "registered_address": null }, "geometry": { "type": "Point", "coordinates": [ -118.262368, 34.033284 ] } },
{ "type": "Feature", "properties": { "name": "VIP Collective", "address": "8113 S Western Ave", "city": "Los Angeles", "slug": "vip-collective", "state": "CA", "type": "dispensary", "url": "https:\/\/weedmaps.com\/dispensaries\/vip-collective", "x": -118.309159, "y": 33.965219, "zipcode": 90047, "registered": false, "registered_name": null, "registered_address": null }, "geometry": { "type": "Point", "coordinates": [ -118.309159, 33.965219 ] } },
{ "type": "Feature", "properties": { "name": "WEED - Wellness Earth Energy Dispensary Powered by Project Cannabis", "address": "11557 Ventura Blvd.", "city": "Studio City", "slug": "concentrate-leader", "state": "CA", "type": "dispensary", "url": "https:\/\/weedmaps.com\/dispensaries\/concentrate-leader", "x": -118.38341, "y": 34.139865, "zipcode": 91604, "registered": true, "registered_name": "THE WELLNESS EARTH ENERGY DISPENSARY", "registered_address": "11557 VENTURA 91604-2611" }, "geometry": { "type": "Point", "coordinates": [ -118.38341, 34.139865 ] } },
{ "type": "Feature", "properties": { "name": "Weed 4 Less 15 Cap", "address": "7500 S. Main St.", "city": "Los Angeles", "slug": "weed-4-less-15-cap", "state": "California", "type": "dispensary", "url": "https:\/\/weedmaps.com\/dispensaries\/weed-4-less-15-cap", "x": -118.273791, "y": 33.972033, "zipcode": 90003, "registered": false, "registered_name": null, "registered_address": null }, "geometry": { "type": "Point", "coordinates": [ -118.273791, 33.972033 ] } },
{ "type": "Feature", "properties": { "name": "WEED CENTRAL - 10G for 45", "address": "9221 S Central Ave", "city": "Los Angeles", "slug": "weed-central", "state": null, "type": "dispensary", "url": "https:\/\/weedmaps.com\/dispensaries\/weed-central", "x": -118.256068, "y": 33.952134, "zipcode": 90002, "registered": false, "registered_name": null, "registered_address": null }, "geometry": { "type": "Point", "coordinates": [ -118.256068, 33.952134 ] } },
{ "type": "Feature", "properties": { "name": "Weedland Hills", "address": "22150 Ventura Blvd unit 102", "city": "Woodland Hills", "slug": "weedland-hills-3", "state": "CA", "type": "dispensary", "url": "https:\/\/weedmaps.com\/dispensaries\/weedland-hills-3", "x": -118.609931, "y": 34.168379, "zipcode": 91364, "registered": false, "registered_name": null, "registered_address": null }, "geometry": { "type": "Point", "coordinates": [ -118.609931, 34.168379 ] } },
{ "type": "Feature", "properties": { "name": "WeedWay", "address": "7031 Foothill Blvd.", "city": "Tujunga", "slug": "st-andrews-green-tujunga", "state": "CA", "type": "dispensary", "url": "https:\/\/weedmaps.com\/dispensaries\/st-andrews-green-tujunga", "x": -118.284412, "y": 34.248169, "zipcode": 91042, "registered": true, "registered_name": "ST. ANDREW'S GREEN, A COOPERATIVE CORPORATION", "registered_address": "7031 FOOTHILL 91042-2714" }, "geometry": { "type": "Point", "coordinates": [ -118.284412, 34.248169 ] } },
{ "type": "Feature", "properties": { "name": "West Coast Collective", "address": "5422 Normandie Avenue", "city": "Los Angeles", "slug": "cpt-flight-club-collective", "state": "CA", "type": "dispensary", "url": "https:\/\/weedmaps.com\/dispensaries\/cpt-flight-club-collective", "x": -118.300032, "y": 33.992731, "zipcode": 90037, "registered": false, "registered_name": null, "registered_address": null }, "geometry": { "type": "Point", "coordinates": [ -118.300032, 33.992731 ] } },
{ "type": "Feature", "properties": { "name": "West Coast Holistic Center Pre-ICO", "address": "15460 Devonshire st.", "city": "Mission Hills", "slug": "west-coast-holistic-center", "state": "CA", "type": "dispensary", "url": "https:\/\/weedmaps.com\/dispensaries\/west-coast-holistic-center", "x": -118.469481, "y": 34.257104, "zipcode": 91345, "registered": true, "registered_name": "WELLNESS CAREGIVERS COLLECTIVE", "registered_address": "15460 DEVONSHIRE 91345-2619" }, "geometry": { "type": "Point", "coordinates": [ -118.469481, 34.257104 ] } },
{ "type": "Feature", "properties": { "name": "West Valley Patients Center (PRE-ICO)", "address": "23043 Ventura Blvd.", "city": "Woodland Hills", "slug": "west-valley-patients-group-2-2", "state": "CA", "type": "dispensary", "url": "https:\/\/weedmaps.com\/dispensaries\/west-valley-patients-group-2-2", "x": -118.6282757, "y": 34.1644899, "zipcode": 91364, "registered": true, "registered_name": "TANIS INDUSTRIES LLC", "registered_address": "23043 VENTURA 91364-1107" }, "geometry": { "type": "Point", "coordinates": [ -118.6282757, 34.1644899 ] } },
{ "type": "Feature", "properties": { "name": "Western Top Shop 20 CAP", "address": "6900 S Western Ave", "city": "Los Angeles", "slug": "western-top-shop-20-cap", "state": "California", "type": "dispensary", "url": "https:\/\/weedmaps.com\/dispensaries\/western-top-shop-20-cap", "x": -118.308427, "y": 33.976954, "zipcode": 90047, "registered": false, "registered_name": null, "registered_address": null }, "geometry": { "type": "Point", "coordinates": [ -118.308427, 33.976954 ] } },
{ "type": "Feature", "properties": { "name": "Western Wellness \"Grand Opening\"", "address": "3601 South Western AVe", "city": "Los Angeles", "slug": "western-wellness-los-angeles", "state": "CA", "type": "dispensary", "url": "https:\/\/weedmaps.com\/dispensaries\/western-wellness-los-angeles", "x": -118.309104, "y": 34.022672, "zipcode": 90018, "registered": false, "registered_name": null, "registered_address": null }, "geometry": { "type": "Point", "coordinates": [ -118.309104, 34.022672 ] } },
{ "type": "Feature", "properties": { "name": "Westside Meds", "address": "8940 National Blvd UNIT B", "city": "Los Angeles", "slug": "westside-meds-2-3", "state": "CA", "type": "dispensary", "url": "https:\/\/weedmaps.com\/dispensaries\/westside-meds-2-3", "x": -118.389652, "y": 34.03008, "zipcode": 90034, "registered": false, "registered_name": null, "registered_address": null }, "geometry": { "type": "Point", "coordinates": [ -118.389652, 34.03008 ] } },
{ "type": "Feature", "properties": { "name": "Westside Station", "address": "7022 Valjean Ave", "city": "Van Nuys", "slug": "westside-caregivers-club-inc", "state": "CA", "type": "dispensary", "url": "https:\/\/weedmaps.com\/dispensaries\/westside-caregivers-club-inc", "x": -118.485506, "y": 34.198235, "zipcode": 91406, "registered": true, "registered_name": "WESTSIDE CAREGIVERS CLUB INC", "registered_address": "7022 VALJEAN 91406-3914" }, "geometry": { "type": "Point", "coordinates": [ -118.485506, 34.198235 ] } },
{ "type": "Feature", "properties": { "name": "White Castle", "address": "1026 W Pacific Coast", "city": "Wilmington", "slug": "lol-1", "state": "CA", "type": "dispensary", "url": "https:\/\/weedmaps.com\/dispensaries\/lol-1", "x": -118.276013, "y": 33.790018, "zipcode": 90744, "registered": false, "registered_name": null, "registered_address": null }, "geometry": { "type": "Point", "coordinates": [ -118.276013, 33.790018 ] } },
{ "type": "Feature", "properties": { "name": "WHTC - Adult Use", "address": "3760 Cahuenga Blvd.", "city": "Studio City", "slug": "woodland-hills-treatment-center", "state": "CA", "type": "dispensary", "url": "https:\/\/weedmaps.com\/dispensaries\/woodland-hills-treatment-center", "x": -118.362129, "y": 34.136431, "zipcode": 91604, "registered": true, "registered_name": "LIZBOR INC", "registered_address": "3760 CAHUENGA 91604-3578" }, "geometry": { "type": "Point", "coordinates": [ -118.362129, 34.136431 ] } },
{ "type": "Feature", "properties": { "name": "WOW 25 CAP", "address": "830 Sampson Ave", "city": "Wilmington", "slug": "worshipofwilmington", "state": "CA", "type": "dispensary", "url": "https:\/\/weedmaps.com\/dispensaries\/worshipofwilmington", "x": -118.233304, "y": 33.782501, "zipcode": 90744, "registered": false, "registered_name": null, "registered_address": null }, "geometry": { "type": "Point", "coordinates": [ -118.233304, 33.782501 ] } },
{ "type": "Feature", "properties": { "name": "WWC 25 CAP", "address": "3733 Whittier Blvd", "city": "Los Angeles", "slug": "wwc-25-cap", "state": "CA", "type": "dispensary", "url": "https:\/\/weedmaps.com\/dispensaries\/wwc-25-cap", "x": -118.192874, "y": 34.024388, "zipcode": 90023, "registered": false, "registered_name": null, "registered_address": null }, "geometry": { "type": "Point", "coordinates": [ -118.192874, 34.024388 ] } },
{ "type": "Feature", "properties": { "name": "Zen Noho pre-ICO", "address": "5142 Vineland Avenue", "city": "North Hollywood", "slug": "magnolia-wellness-center", "state": "CA", "type": "dispensary", "url": "https:\/\/weedmaps.com\/dispensaries\/magnolia-wellness-center", "x": -118.3700182, "y": 34.1638419, "zipcode": 91601, "registered": true, "registered_name": "DOWNTOWN COLLECTIVE INC", "registered_address": "5142 VINELAND 91601-3849" }, "geometry": { "type": "Point", "coordinates": [ -118.3700182, 34.1638419 ] } }
]
}
